{
   "type": "FeatureCollection",
   "features": [
  {
    "type": "Feature",
    "geometry": {
       "type": "Point",
       "coordinates":  [ 4.854099700,52.314520400 ]
    },
    "properties": {
    "Scouting":"Regio Amsterdam/Amstelland",
    "URL":"https://www.scouting.nl/scoutinggroep/regio-amsterdam-amstelland",
    "rang":"regio",
    "type":"waterscouts",
    "Straat":"Princesselaan",
    "Huisnummer":"6A",
    "Postcode":"1182MA",
    "Stad":"Amstelveen",
    "Land":"Nederland",
    "Adres":"Princesselaan 6A"
    }
  },
  {
    "type": "Feature",
    "geometry": {
       "type": "Point",
       "coordinates":  [ 4.66669093,52.31478953 ]
    },
    "properties": {
    "Scouting":"Admiraliteit 05 Rond Amstel en IJ",
    "URL":"https://www.scouting.nl/scoutinggroep/admiraliteit-05-rond-amstel-en-ij",
    "rang":"admiraliteit",
    "type":"waterscouts",
    "Straat":"Stoholm",
    "Huisnummer":"195B",
    "Postcode":"2133KG",
    "Stad":"Hoofddorp",
    "Land":"Nederland",
    "Adres":"Stoholm 195B"
    }
  },
  {
    "type": "Feature",
    "geometry": {
       "type": "Point",
       "coordinates":  [ 4.92768497,52.39084432 ]
    },
    "properties": {
    "Scouting":"Wartburggroep",
    "URL":"https://www.scouting.nl/scoutinggroep/wartburggroep",
    "rang":"lokale groep",
    "type":"waterscouts",
    "Straat":"Meeuwenlaan",
    "Huisnummer":"138B",
    "Postcode":"1022AM",
    "Stad":"Amsterdam",
    "Land":"Nederland",
    "Adres":"Meeuwenlaan 138B"
    }
  },
  {
    "type": "Feature",
    "geometry": {
       "type": "Point",
       "coordinates":  [ 4.85097197,52.33451534 ]
    },
    "properties": {
    "Scouting":"Scouting Erskine",
    "URL":"https://www.scouting.nl/scoutinggroep/scouting-erskine",
    "rang":"lokale groep",
    "type":"waterscouts",
    "Straat":"Jollenpad",
    "Huisnummer":"14",
    "Postcode":"1081KC",
    "Stad":"Amsterdam",
    "Land":"Nederland",
    "Adres":"Jollenpad 14"
    }
  },
  {
    "type": "Feature",
    "geometry": {
       "type": "Point",
       "coordinates":  [ 4.84971309,52.33427594 ]
    },
    "properties": {
    "Scouting":"Elfregi Zeeverkenners Amsterdam",
    "URL":"https://www.scouting.nl/scoutinggroep/elfregi-zeeverkenners-amsterdam",
    "rang":"lokale groep",
    "type":"waterscouts",
    "Straat":"Jollenpad",
    "Huisnummer":"16",
    "Postcode":"1081KC",
    "Stad":"Amsterdam",
    "Land":"Nederland",
    "Adres":"Jollenpad 16"
    }
  },
  {
    "type": "Feature",
    "geometry": {
       "type": "Point",
       "coordinates":  [ 4.84899541,52.33417381 ]
    },
    "properties": {
    "Scouting":"Dunnewold - Hendrick de Keysergroep",
    "URL":"https://www.scouting.nl/scoutinggroep/dunnewold-hendrick-de-keysergroep",
    "rang":"lokale groep",
    "type":"waterscouts",
    "Straat":"Jollenpad",
    "Huisnummer":"18",
    "Postcode":"1081KC",
    "Stad":"Amsterdam",
    "Land":"Nederland",
    "Adres":"Jollenpad 18"
    }
  },
  {
    "type": "Feature",
    "geometry": {
       "type": "Point",
       "coordinates":  [ 4.81626547,52.36020189 ]
    },
    "properties": {
    "Scouting":"Scouting Phoenix",
    "URL":"https://www.scouting.nl/scoutinggroep/scouting-phoenix",
    "rang":"lokale groep",
    "type":"landscouts",
    "Straat":"C Plantijngracht",
    "Huisnummer":"5",
    "Postcode":"1065DA",
    "Stad":"Amsterdam",
    "Land":"Nederland",
    "Adres":"C Plantijngracht 5"
    }
  },
  {
    "type": "Feature",
    "geometry": {
       "type": "Point",
       "coordinates":  [ 4.81657235,52.36031122 ]
    },
    "properties": {
    "Scouting":"Sarto groep",
    "URL":"https://www.scouting.nl/scoutinggroep/sarto-groep",
    "rang":"lokale groep",
    "type":"waterscouts",
    "Straat":"C Plantijngracht",
    "Huisnummer":"6",
    "Postcode":"1065DA",
    "Stad":"Amsterdam",
    "Land":"Nederland",
    "Adres":"C Plantijngracht 6"
    }
  },
  {
    "type": "Feature",
    "geometry": {
       "type": "Point",
       "coordinates":  [ 4.92857674,52.35102848 ]
    },
    "properties": {
    "Scouting":"Scouting Frankendael",
    "URL":"https://www.scouting.nl/scoutinggroep/scouting-frankendael",
    "rang":"lokale groep",
    "type":"landscouts",
    "Straat":"Kamerlingh Onneslaan",
    "Huisnummer":"9",
    "Postcode":"1097DE",
    "Stad":"Amsterdam",
    "Land":"Nederland",
    "Adres":"Kamerlingh Onneslaan 9"
    }
  },
  {
    "type": "Feature",
    "geometry": {
       "type": "Point",
       "coordinates":  [ 4.92826704,52.35117108 ]
    },
    "properties": {
    "Scouting":"Scouting Gijsbrecht van Aemstel",
    "URL":"https://www.scouting.nl/scoutinggroep/scouting-gijsbrecht-van-aemstel",
    "rang":"lokale groep",
    "type":"landscouts",
    "Straat":"Kamerlingh Onneslaan",
    "Huisnummer":"7",
    "Postcode":"1097DE",
    "Stad":"Amsterdam",
    "Land":"Nederland",
    "Adres":"Kamerlingh Onneslaan 7"
    }
  },
  {
    "type": "Feature",
    "geometry": {
       "type": "Point",
       "coordinates":  [ 4.97708782,52.30089899 ]
    },
    "properties": {
    "Scouting":"Scouting Holendrecht",
    "URL":"https://www.scouting.nl/scoutinggroep/scouting-holendrecht",
    "rang":"lokale groep",
    "type":"waterscouts",
    "Straat":"Meerkerkdreef",
    "Huisnummer":"23",
    "Postcode":"1106GZ",
    "Stad":"Amsterdam",
    "Land":"Nederland",
    "Adres":"Meerkerkdreef 23"
    }
  },
  {
    "type": "Feature",
    "geometry": {
       "type": "Point",
       "coordinates":  [ 4.94383169,52.34902842 ]
    },
    "properties": {
    "Scouting":"Scouting Oost I",
    "URL":"https://www.scouting.nl/scoutinggroep/scouting-oost-i",
    "rang":"lokale groep",
    "type":"landscouts",
    "Straat":"Kruislaan",
    "Huisnummer":"224",
    "Postcode":"1098SM",
    "Stad":"Amsterdam",
    "Land":"Nederland",
    "Adres":"Kruislaan 224"
    }
  },
  {
    "type": "Feature",
    "geometry": {
       "type": "Point",
       "coordinates":  [ 4.96649682,52.33882840 ]
    },
    "properties": {
    "Scouting":"Scouting Diemen I",
    "URL":"https://www.scouting.nl/scoutinggroep/scouting-diemen-i",
    "rang":"lokale groep",
    "type":"landscouts",
    "Straat":"Emmastraat",
    "Huisnummer":"12A",
    "Postcode":"1111EW",
    "Stad":"Diemen",
    "Land":"Nederland",
    "Adres":"Emmastraat 12A"
    }
  },
  {
    "type": "Feature",
    "geometry": {
       "type": "Point",
       "coordinates":  [ 6.71530714,53.06249699 ]
    },
    "properties": {
    "Scouting":"Scouting Regio  Drenthe",
    "URL":"https://www.scouting.nl/scoutinggroep/scouting-regio-drenthe",
    "rang":"regio",
    "type":"scouts",
    "Straat":"Noordloo",
    "Huisnummer":"10",
    "Postcode":"9468AW",
    "Stad":"Annen",
    "Land":"Nederland",
    "Adres":"Noordloo 10"
    }
  },
  {
    "type": "Feature",
    "geometry": {
       "type": "Point",
       "coordinates":  [ 6.55589669,52.98680944 ]
    },
    "properties": {
    "Scouting":"St. George",
    "URL":"https://www.scouting.nl/scoutinggroep/st-george",
    "rang":"lokale groep",
    "type":"landscouts",
    "Straat":"Joh Hoflaan",
    "Huisnummer":"3",
    "Postcode":"9401PZ",
    "Stad":"Assen",
    "Land":"Nederland",
    "Adres":"Joh Hoflaan 3"
    }
  },
  {
    "type": "Feature",
    "geometry": {
       "type": "Point",
       "coordinates":  [ 6.59445790,52.99504478 ]
    },
    "properties": {
    "Scouting":"Johannes Post Groep",
    "URL":"https://www.scouting.nl/scoutinggroep/johannes-post-groep",
    "rang":"lokale groep",
    "type":"landscouts",
    "Straat":"Houtlaan",
    "Huisnummer":"107",
    "Postcode":"9403EW",
    "Stad":"Assen",
    "Land":"Nederland",
    "Adres":"Houtlaan 107"
    }
  },
  {
    "type": "Feature",
    "geometry": {
       "type": "Point",
       "coordinates":  [ 6.56609766,52.99229919 ]
    },
    "properties": {
    "Scouting":"Thriantastam",
    "URL":"https://www.scouting.nl/scoutinggroep/thriantastam",
    "rang":"lokale groep",
    "type":"landscouts",
    "Straat":"Oostersingel",
    "Huisnummer":"27",
    "Postcode":"9401JZ",
    "Stad":"Assen",
    "Land":"Nederland",
    "Adres":"Oostersingel 27"
    }
  },
  {
    "type": "Feature",
    "geometry": {
       "type": "Point",
       "coordinates":  [ 6.55619012,52.98664480 ]
    },
    "properties": {
    "Scouting":"De Zwervers",
    "URL":"https://www.scouting.nl/scoutinggroep/de-zwervers",
    "rang":"lokale groep",
    "type":"scouts met een beperking",
    "Straat":"Joh Hoflaan",
    "Huisnummer":"1",
    "Postcode":"9401PZ",
    "Stad":"Assen",
    "Land":"Nederland",
    "Adres":"Joh Hoflaan 1"
    }
  },
  {
    "type": "Feature",
    "geometry": {
       "type": "Point",
       "coordinates":  [ 6.32331798,52.86487415 ]
    },
    "properties": {
    "Scouting":"Scouting 'Schultegroep' Diever",
    "URL":"https://www.scouting.nl/scoutinggroep/scouting-schultegroep-diever",
    "rang":"lokale groep",
    "type":"landscouts",
    "Straat":"Hezenes",
    "Huisnummer":"5",
    "Postcode":"7981LD",
    "Stad":"Diever",
    "Land":"Nederland",
    "Adres":"Hezenes 5"
    }
  },
  {
    "type": "Feature",
    "geometry": {
       "type": "Point",
       "coordinates":  [ 6.49433741,52.84348475 ]
    },
    "properties": {
    "Scouting":"Scouting Beyloo ter Horst",
    "URL":"https://www.scouting.nl/scoutinggroep/scouting-beyloo-ter-horst",
    "rang":"lokale groep",
    "type":"landscouts",
    "Straat":"Smalbroek",
    "Huisnummer":"25",
    "Postcode":"9411TS",
    "Stad":"Beilen",
    "Land":"Nederland",
    "Adres":"Smalbroek 25"
    }
  },
  {
    "type": "Feature",
    "geometry": {
       "type": "Point",
       "coordinates":  [ 6.80062415,52.92936038 ]
    },
    "properties": {
    "Scouting":"De Woudlopers",
    "URL":"https://www.scouting.nl/scoutinggroep/de-woudlopers",
    "rang":"lokale groep",
    "type":"landscouts",
    "Straat":"Marslandenweg",
    "Huisnummer":"5",
    "Postcode":"9531JS",
    "Stad":"Borger",
    "Land":"Nederland",
    "Adres":"Marslandenweg 5"
    }
  },
  {
    "type": "Feature",
    "geometry": {
       "type": "Point",
       "coordinates":  [ 6.72540214,52.66997835 ]
    },
    "properties": {
    "Scouting":"Drostengroep Scouting Coevorden",
    "URL":"https://www.scouting.nl/scoutinggroep/drostengroep-scouting-coevorden",
    "rang":"lokale groep",
    "type":"landscouts",
    "Straat":"Ballastweg",
    "Huisnummer":"52",
    "Postcode":"7741ZL",
    "Stad":"Coevorden",
    "Land":"Nederland",
    "Adres":"Ballastweg 52"
    }
  },
  {
    "type": "Feature",
    "geometry": {
       "type": "Point",
       "coordinates":  [ 6.90264228,52.79242769 ]
    },
    "properties": {
    "Scouting":"Scouting Emmen",
    "URL":"https://www.scouting.nl/scoutinggroep/scouting-emmen",
    "rang":"lokale groep",
    "type":"landscouts",
    "Straat":"Dennenlaan",
    "Huisnummer":"42",
    "Postcode":"7822EL",
    "Stad":"Emmen",
    "Land":"Nederland",
    "Adres":"Dennenlaan 42"
    }
  },
  {
    "type": "Feature",
    "geometry": {
       "type": "Point",
       "coordinates":  [ 6.93222220,52.71593556 ]
    },
    "properties": {
    "Scouting":"Scouting St. Pancratius/Maria Immaculata Erica",
    "URL":"https://www.scouting.nl/scoutinggroep/scouting-st-pancratius-maria-immaculata-erica",
    "rang":"lokale groep",
    "type":"landscouts",
    "Straat":"Kerkweg",
    "Huisnummer":"122",
    "Postcode":"7887BJ",
    "Stad":"Erica",
    "Land":"Nederland",
    "Adres":"Kerkweg 122"
    }
  },
  {
    "type": "Feature",
    "geometry": {
       "type": "Point",
       "coordinates":  [ 6.867606100,52.881055300 ]
    },
    "properties": {
    "Scouting":"Hunze-Hikers",
    "URL":"https://www.scouting.nl/scoutinggroep/hunze-hikers",
    "rang":"lokale groep",
    "type":"landscouts",
    "Straat":"Polweg",
    "Huisnummer":"3B",
    "Postcode":"7875CG",
    "Stad":"Exloo",
    "Land":"Nederland",
    "Adres":"Polweg 3B"
    }
  },
  {
    "type": "Feature",
    "geometry": {
       "type": "Point",
       "coordinates":  [ 6.48530466,52.73557548 ]
    },
    "properties": {
    "Scouting":"Scouting Hoogeveen",
    "URL":"https://www.scouting.nl/scoutinggroep/scouting-hoogeveen",
    "rang":"lokale groep",
    "type":"landscouts",
    "Straat":"Voltastraat",
    "Huisnummer":"35",
    "Postcode":"7903AA",
    "Stad":"Hoogeveen",
    "Land":"Nederland",
    "Adres":"Voltastraat 35"
    }
  },
  {
    "type": "Feature",
    "geometry": {
       "type": "Point",
       "coordinates":  [ 6.37726575,53.17186678 ]
    },
    "properties": {
    "Scouting":"Nienoord, St. Scouting",
    "URL":"https://www.scouting.nl/scoutinggroep/nienoord-st-scouting",
    "rang":"lokale groep",
    "type":"landscouts",
    "Straat":"Oude Zuiderweg",
    "Huisnummer":"4",
    "Postcode":"9351PE",
    "Stad":"Leek",
    "Land":"Nederland",
    "Adres":"Oude Zuiderweg 4"
    }
  },
  {
    "type": "Feature",
    "geometry": {
       "type": "Point",
       "coordinates":  [ 6.21287358,52.70095243 ]
    },
    "properties": {
    "Scouting":"Scouting Meppel",
    "URL":"https://www.scouting.nl/scoutinggroep/scouting-meppel",
    "rang":"lokale groep",
    "type":"waterscouts",
    "Straat":"Blankensteinweg",
    "Huisnummer":"43",
    "Postcode":"7943KN",
    "Stad":"Meppel",
    "Land":"Nederland",
    "Adres":"Blankensteinweg 43"
    }
  },
  {
    "type": "Feature",
    "geometry": {
       "type": "Point",
       "coordinates":  [ 6.43033243,53.12670566 ]
    },
    "properties": {
    "Scouting":"Scouting Mensinghe Roden",
    "URL":"https://www.scouting.nl/scoutinggroep/scouting-mensinghe-roden",
    "rang":"lokale groep",
    "type":"landscouts",
    "Straat":"Norgerweg",
    "Huisnummer":"4",
    "Postcode":"9301JM",
    "Stad":"Roden",
    "Land":"Nederland",
    "Adres":"Norgerweg 4"
    }
  },
  {
    "type": "Feature",
    "geometry": {
       "type": "Point",
       "coordinates":  [ 6.13273694,52.80969892 ]
    },
    "properties": {
    "Scouting":"Scouting Johan van den Kornputgroep",
    "URL":"https://www.scouting.nl/scoutinggroep/scouting-johan-van-den-kornputgroep",
    "rang":"lokale groep",
    "type":"landscouts",
    "Straat":"Eesveenseweg",
    "Huisnummer":"95",
    "Postcode":"8347JC",
    "Stad":"Eesveen",
    "Land":"Nederland",
    "Adres":"Eesveenseweg 95"
    }
  },
  {
    "type": "Feature",
    "geometry": {
       "type": "Point",
       "coordinates":  [ 6.58766486,53.07601876 ]
    },
    "properties": {
    "Scouting":"Scouting Vries",
    "URL":"https://www.scouting.nl/scoutinggroep/scouting-vries",
    "rang":"lokale groep",
    "type":"landscouts",
    "Straat":"Sportlaan",
    "Huisnummer":"10",
    "Postcode":"9481AJ",
    "Stad":"Vries",
    "Land":"Nederland",
    "Adres":"Sportlaan 10"
    }
  },
  {
    "type": "Feature",
    "geometry": {
       "type": "Point",
       "coordinates":  [ 6.69310164,53.09650543 ]
    },
    "properties": {
    "Scouting":"De Rangers",
    "URL":"https://www.scouting.nl/scoutinggroep/de-rangers",
    "rang":"lokale groep",
    "type":"landscouts",
    "Straat":"Hanekamp",
    "Huisnummer":"1",
    "Postcode":"9471AS",
    "Stad":"Zuidlaren",
    "Land":"Nederland",
    "Adres":"Hanekamp 1"
    }
  },
  {
    "type": "Feature",
    "geometry": {
       "type": "Point",
       "coordinates":  [ 5.81236186,53.19714179 ]
    },
    "properties": {
    "Scouting":"Regio Fryslan",
    "URL":"https://www.scouting.nl/scoutinggroep/regio-fryslan",
    "rang":"regio",
    "type":"scouts",
    "Straat":"Verstolkstraat",
    "Huisnummer":"41",
    "Postcode":"8933DX",
    "Stad":"Leeuwarden",
    "Land":"Nederland",
    "Adres":"Verstolkstraat 41"
    }
  },
  {
    "type": "Feature",
    "geometry": {
       "type": "Point",
       "coordinates":  [ 6.15005579,53.25050604 ]
    },
    "properties": {
    "Scouting":"De Brimzen",
    "URL":"https://www.scouting.nl/scoutinggroep/de-brimzen",
    "rang":"lokale groep",
    "type":"landscouts",
    "Straat":"Mejontsmastraat",
    "Huisnummer":"20",
    "Postcode":"9285RE",
    "Stad":"Buitenpost",
    "Land":"Nederland",
    "Adres":"Mejontsmastraat 20"
    }
  },
  {
    "type": "Feature",
    "geometry": {
       "type": "Point",
       "coordinates":  [ 5.99940635,53.31449425 ]
    },
    "properties": {
    "Scouting":"Scouting de Granaet",
    "URL":"https://www.scouting.nl/scoutinggroep/scouting-de-granaet",
    "rang":"lokale groep",
    "type":"scouts met een beperking",
    "Straat":"Tolhuispark",
    "Huisnummer":"1",
    "Postcode":"9103SN",
    "Stad":"Dokkum",
    "Land":"Nederland",
    "Adres":"Tolhuispark 1"
    }
  },
  {
    "type": "Feature",
    "geometry": {
       "type": "Point",
       "coordinates":  [ 5.44916970,53.17410361 ]
    },
    "properties": {
    "Scouting":"St. Michiel & Lioba",
    "URL":"https://www.scouting.nl/scoutinggroep/st-michiel-lioba",
    "rang":"lokale groep",
    "type":"landscouts",
    "Straat":"Kanaalweg",
    "Huisnummer":"112",
    "Postcode":"8861KJ",
    "Stad":"Harlingen",
    "Land":"Nederland",
    "Adres":"Kanaalweg 112"
    }
  },
  {
    "type": "Feature",
    "geometry": {
       "type": "Point",
       "coordinates":  [ 5.44916970,53.17410361 ]
    },
    "properties": {
    "Scouting":"Scouting Caspar di Robles",
    "URL":"https://www.scouting.nl/scoutinggroep/scouting-caspar-di-robles",
    "rang":"lokale groep",
    "type":"waterscouts",
    "Straat":"Kanaalweg",
    "Huisnummer":"112",
    "Postcode":"8861KJ",
    "Stad":"Harlingen",
    "Land":"Nederland",
    "Adres":"Kanaalweg 112"
    }
  },
  {
    "type": "Feature",
    "geometry": {
       "type": "Point",
       "coordinates":  [ 5.84219764,53.19070949 ]
    },
    "properties": {
    "Scouting":"Duco van Martena",
    "URL":"https://www.scouting.nl/scoutinggroep/duco-van-martena",
    "rang":"lokale groep",
    "type":"waterscouts",
    "Straat":"Avondsterweg",
    "Huisnummer":"11A",
    "Postcode":"8938AK",
    "Stad":"Leeuwarden",
    "Land":"Nederland",
    "Adres":"Avondsterweg 11A"
    }
  },
  {
    "type": "Feature",
    "geometry": {
       "type": "Point",
       "coordinates":  [ 5.82586968,53.21443553 ]
    },
    "properties": {
    "Scouting":"Chr. Scoutinggroep Burmania",
    "URL":"https://www.scouting.nl/scoutinggroep/chr-scoutinggroep-burmania",
    "rang":"lokale groep",
    "type":"landscouts",
    "Straat":"Kalverdijkje",
    "Huisnummer":"87",
    "Postcode":"8924JJ",
    "Stad":"Leeuwarden",
    "Land":"Nederland",
    "Adres":"Kalverdijkje 87"
    }
  },
  {
    "type": "Feature",
    "geometry": {
       "type": "Point",
       "coordinates":  [ 5.79401495,53.21285848 ]
    },
    "properties": {
    "Scouting":"Schout-bij-nacht Doorman",
    "URL":"https://www.scouting.nl/scoutinggroep/schout-bij-nacht-doorman",
    "rang":"lokale groep",
    "type":"landscouts",
    "Straat":"Jeugdweg",
    "Huisnummer":"1",
    "Postcode":"8917EP",
    "Stad":"Leeuwarden",
    "Land":"Nederland",
    "Adres":"Jeugdweg 1"
    }
  },
  {
    "type": "Feature",
    "geometry": {
       "type": "Point",
       "coordinates":  [ 5.82652990,53.20427930 ]
    },
    "properties": {
    "Scouting":"Scoutinggroep de Esdoorn",
    "URL":"https://www.scouting.nl/scoutinggroep/scoutinggroep-de-esdoorn",
    "rang":"lokale groep",
    "type":"luchtscouts",
    "Straat":"Esdoornstraat",
    "Huisnummer":"50",
    "Postcode":"8924BK",
    "Stad":"Leeuwarden",
    "Land":"Nederland",
    "Adres":"Esdoornstraat 50"
    }
  },
  {
    "type": "Feature",
    "geometry": {
       "type": "Point",
       "coordinates":  [ 5.55413177,53.18340232 ]
    },
    "properties": {
    "Scouting":"Andromeda",
    "URL":"https://www.scouting.nl/scoutinggroep/andromeda",
    "rang":"lokale groep",
    "type":"landscouts",
    "Straat":"Jan Stapertlaan",
    "Huisnummer":"12",
    "Postcode":"8801JT",
    "Stad":"Franeker",
    "Land":"Nederland",
    "Adres":"Jan Stapertlaan 12"
    }
  },
  {
    "type": "Feature",
    "geometry": {
       "type": "Point",
       "coordinates":  [ 6.08272597,53.05939614 ]
    },
    "properties": {
    "Scouting":"BA-OW groep",
    "URL":"https://www.scouting.nl/scoutinggroep/ba-ow-groep",
    "rang":"lokale groep",
    "type":"landscouts",
    "Straat":"Hoofdstraat",
    "Huisnummer":"91",
    "Postcode":"9244CM",
    "Stad":"Beetsterzwaag",
    "Land":"Nederland",
    "Adres":"Hoofdstraat 91"
    }
  },
  {
    "type": "Feature",
    "geometry": {
       "type": "Point",
       "coordinates":  [ 6.04814850,53.10338517 ]
    },
    "properties": {
    "Scouting":"De Wâldswalkers",
    "URL":"https://www.scouting.nl/scoutinggroep/de-wâldswalkers",
    "rang":"lokale groep",
    "type":"waterscouts",
    "Straat":"Buitenstvallaat",
    "Huisnummer":"19",
    "Postcode":"9204WX",
    "Stad":"Drachten",
    "Land":"Nederland",
    "Adres":"Buitenstvallaat 19"
    }
  },
  {
    "type": "Feature",
    "geometry": {
       "type": "Point",
       "coordinates":  [ 5.95322016,52.94247618 ]
    },
    "properties": {
    "Scouting":"Scouting Van Maasdijk",
    "URL":"https://www.scouting.nl/scoutinggroep/scouting-van-maasdijk",
    "rang":"lokale groep",
    "type":"landscouts",
    "Straat":"Van Bienemalaan",
    "Huisnummer":"7",
    "Postcode":"8453WP",
    "Stad":"Oranjewoud",
    "Land":"Nederland",
    "Adres":"Van Bienemalaan 7"
    }
  },
  {
    "type": "Feature",
    "geometry": {
       "type": "Point",
       "coordinates":  [ 5.81499858,52.97491696 ]
    },
    "properties": {
    "Scouting":"De Borgergroep",
    "URL":"https://www.scouting.nl/scoutinggroep/de-borgergroep",
    "rang":"lokale groep",
    "type":"landscouts",
    "Straat":"Koarte Ekers",
    "Huisnummer":"2A",
    "Postcode":"8501ZH",
    "Stad":"Joure",
    "Land":"Nederland",
    "Adres":"Koarte Ekers 2A"
    }
  },
  {
    "type": "Feature",
    "geometry": {
       "type": "Point",
       "coordinates":  [ 5.39929968,53.05778358 ]
    },
    "properties": {
    "Scouting":"Burdine",
    "URL":"https://www.scouting.nl/scoutinggroep/burdine",
    "rang":"lokale groep",
    "type":"landscouts",
    "Straat":"Gedempte Putten",
    "Huisnummer":"24",
    "Postcode":"8754EH",
    "Stad":"Makkum",
    "Land":"Nederland",
    "Adres":"Gedempte Putten 24"
    }
  },
  {
    "type": "Feature",
    "geometry": {
       "type": "Point",
       "coordinates":  [ 5.68858486,53.02382545 ]
    },
    "properties": {
    "Scouting":"Scoutinggroep TIBRAG",
    "URL":"https://www.scouting.nl/scoutinggroep/scoutinggroep-tibrag",
    "rang":"lokale groep",
    "type":"waterscouts",
    "Straat":"Top",
    "Huisnummer":"1",
    "Postcode":"8606JT",
    "Stad":"Sneek",
    "Land":"Nederland",
    "Adres":"Top 1"
    }
  },
  {
    "type": "Feature",
    "geometry": {
       "type": "Point",
       "coordinates":  [ 5.68858486,53.02382545 ]
    },
    "properties": {
    "Scouting":"Scouting Groep Greate Pier Sneek",
    "URL":"https://www.scouting.nl/scoutinggroep/scouting-groep-greate-pier-sneek",
    "rang":"lokale groep",
    "type":"waterscouts",
    "Straat":"Top",
    "Huisnummer":"1",
    "Postcode":"8606JT",
    "Stad":"Sneek",
    "Land":"Nederland",
    "Adres":"Top 1"
    }
  },
  {
    "type": "Feature",
    "geometry": {
       "type": "Point",
       "coordinates":  [ 6.28932474,52.99899886 ]
    },
    "properties": {
    "Scouting":"De Biezenhutters",
    "URL":"https://www.scouting.nl/scoutinggroep/de-biezenhutters",
    "rang":"lokale groep",
    "type":"landscouts",
    "Straat":"Ter Borghlaan",
    "Huisnummer":"2",
    "Postcode":"8431LZ",
    "Stad":"Oosterwolde (F)",
    "Land":"Nederland",
    "Adres":"Ter Borghlaan 2"
    }
  },
  {
    "type": "Feature",
    "geometry": {
       "type": "Point",
       "coordinates":  [ 5.85195416,51.78943325 ]
    },
    "properties": {
    "Scouting":"Admiraliteit 15 Maas en Waal",
    "URL":"https://www.scouting.nl/scoutinggroep/admiraliteit-15-maas-en-waal",
    "rang":"admiraliteit",
    "type":"waterscouts",
    "Straat":"De Vang",
    "Huisnummer":"2",
    "Postcode":"6581DR",
    "Stad":"Malden",
    "Land":"Nederland",
    "Adres":"De Vang 2"
    }
  },
  {
    "type": "Feature",
    "geometry": {
       "type": "Point",
       "coordinates":  [ 5.90252173,51.95472147 ]
    },
    "properties": {
    "Scouting":"Admiraliteit 16 Neder-Rijn",
    "URL":"https://www.scouting.nl/scoutinggroep/admiraliteit-16-neder-rijn",
    "rang":"admiraliteit",
    "type":"waterscouts",
    "Straat":"Oldorphof",
    "Huisnummer":"9",
    "Postcode":"6835BA",
    "Stad":"Arnhem",
    "Land":"Nederland",
    "Adres":"Oldorphof 9"
    }
  },
  {
    "type": "Feature",
    "geometry": {
       "type": "Point",
       "coordinates":  [ 6.49866440,52.23062688 ]
    },
    "properties": {
    "Scouting":"Admiraliteit 17 Midden-IJssel",
    "URL":"https://www.scouting.nl/scoutinggroep/admiraliteit-17-midden-ijssel",
    "rang":"admiraliteit",
    "type":"waterscouts",
    "Straat":"Prinses Beatrixstraat",
    "Huisnummer":"25",
    "Postcode":"7475AP",
    "Stad":"Markelo",
    "Land":"Nederland",
    "Adres":"Prinses Beatrixstraat 25"
    }
  },
  {
    "type": "Feature",
    "geometry": {
       "type": "Point",
       "coordinates":  [ 5.64098656,52.56452724 ]
    },
    "properties": {
    "Scouting":"Admiraliteit 18 De Hanze",
    "URL":"https://www.scouting.nl/scoutinggroep/admiraliteit-18-de-hanze",
    "rang":"admiraliteit",
    "type":"waterscouts",
    "Straat":"Papaverzijde",
    "Huisnummer":"5",
    "Postcode":"8255JM",
    "Stad":"Swifterbant",
    "Land":"Nederland",
    "Adres":"Papaverzijde 5"
    }
  },
  {
    "type": "Feature",
    "geometry": {
       "type": "Point",
       "coordinates":  [ 5.89786864,52.00572164 ]
    },
    "properties": {
    "Scouting":"Anne de Guigné",
    "URL":"https://www.scouting.nl/scoutinggroep/anne-de-guigné",
    "rang":"lokale groep",
    "type":"ruiterscouts",
    "Straat":"De Wolflaan",
    "Huisnummer":"25",
    "Postcode":"6815HJ",
    "Stad":"Arnhem",
    "Land":"Nederland",
    "Adres":"De Wolflaan 25"
    }
  },
  {
    "type": "Feature",
    "geometry": {
       "type": "Point",
       "coordinates":  [ 5.93390373,51.98137448 ]
    },
    "properties": {
    "Scouting":"André de Thaye",
    "URL":"https://www.scouting.nl/scoutinggroep/andré-de-thaye",
    "rang":"lokale groep",
    "type":"landscouts",
    "Straat":"Voetiuslaan",
    "Huisnummer":"41",
    "Postcode":"6828TD",
    "Stad":"Arnhem",
    "Land":"Nederland",
    "Adres":"Voetiuslaan 41"
    }
  },
  {
    "type": "Feature",
    "geometry": {
       "type": "Point",
       "coordinates":  [ 5.94783957,52.00426147 ]
    },
    "properties": {
    "Scouting":"Aerendheemgroep",
    "URL":"https://www.scouting.nl/scoutinggroep/aerendheemgroep",
    "rang":"lokale groep",
    "type":"landscouts",
    "Straat":"Lindestraat",
    "Huisnummer":"26",
    "Postcode":"6823JT",
    "Stad":"Arnhem",
    "Land":"Nederland",
    "Adres":"Lindestraat 26"
    }
  },
  {
    "type": "Feature",
    "geometry": {
       "type": "Point",
       "coordinates":  [ 5.93158977,51.99619292 ]
    },
    "properties": {
    "Scouting":"St. Christoforus - Lichtdraagsters",
    "URL":"https://www.scouting.nl/scoutinggroep/st-christoforus-lichtdraagsters",
    "rang":"lokale groep",
    "type":"landscouts",
    "Straat":"Monnikensteeg",
    "Huisnummer":"4",
    "Postcode":"6823AB",
    "Stad":"Arnhem",
    "Land":"Nederland",
    "Adres":"Monnikensteeg 4"
    }
  },
  {
    "type": "Feature",
    "geometry": {
       "type": "Point",
       "coordinates":  [ 5.91737417,51.96815859 ]
    },
    "properties": {
    "Scouting":"Scoutinggroep Lido '76",
    "URL":"https://www.scouting.nl/scoutinggroep/scoutinggroep-lido-76",
    "rang":"lokale groep",
    "type":"landscouts",
    "Straat":"Veerpolderstraat",
    "Huisnummer":"128A",
    "Postcode":"6833BS",
    "Stad":"Arnhem",
    "Land":"Nederland",
    "Adres":"Veerpolderstraat 128A"
    }
  },
  {
    "type": "Feature",
    "geometry": {
       "type": "Point",
       "coordinates":  [ 5.87632175,51.98771963 ]
    },
    "properties": {
    "Scouting":"De Geuzen",
    "URL":"https://www.scouting.nl/scoutinggroep/de-geuzen",
    "rang":"lokale groep",
    "type":"waterscouts",
    "Straat":"Diependalseweg",
    "Huisnummer":"3",
    "Postcode":"6813GE",
    "Stad":"Arnhem",
    "Land":"Nederland",
    "Adres":"Diependalseweg 3"
    }
  },
  {
    "type": "Feature",
    "geometry": {
       "type": "Point",
       "coordinates":  [ 5.90047198,51.99585705 ]
    },
    "properties": {
    "Scouting":"SBV/Kastanjegroep",
    "URL":"https://www.scouting.nl/scoutinggroep/sbv-kastanjegroep",
    "rang":"lokale groep",
    "type":"landscouts",
    "Straat":"Parkweg",
    "Huisnummer":"9",
    "Postcode":"6815DJ",
    "Stad":"Arnhem",
    "Land":"Nederland",
    "Adres":"Parkweg 9"
    }
  },
  {
    "type": "Feature",
    "geometry": {
       "type": "Point",
       "coordinates":  [ 5.89127547,51.99660599 ]
    },
    "properties": {
    "Scouting":"Lincoln",
    "URL":"https://www.scouting.nl/scoutinggroep/lincoln",
    "rang":"lokale groep",
    "type":"landscouts",
    "Straat":"Zijpendaalseweg",
    "Huisnummer":"169",
    "Postcode":"6814CJ",
    "Stad":"Arnhem",
    "Land":"Nederland",
    "Adres":"Zijpendaalseweg 169"
    }
  },
  {
    "type": "Feature",
    "geometry": {
       "type": "Point",
       "coordinates":  [ 5.87511795,51.98775653 ]
    },
    "properties": {
    "Scouting":"Luctor et Emergo",
    "URL":"https://www.scouting.nl/scoutinggroep/luctor-et-emergo",
    "rang":"lokale groep",
    "type":"scouts met een beperking",
    "Straat":"Diependalseweg",
    "Huisnummer":"7",
    "Postcode":"6813GE",
    "Stad":"Arnhem",
    "Land":"Nederland",
    "Adres":"Diependalseweg 7"
    }
  },
  {
    "type": "Feature",
    "geometry": {
       "type": "Point",
       "coordinates":  [ 5.94033417,51.96043924 ]
    },
    "properties": {
    "Scouting":"Miguel Pro Waterscouting",
    "URL":"https://www.scouting.nl/scoutinggroep/miguel-pro-waterscouting",
    "rang":"lokale groep",
    "type":"waterscouts",
    "Straat":"Nieuwe Havenweg",
    "Huisnummer":"84",
    "Postcode":"6827BA",
    "Stad":"Arnhem",
    "Land":"Nederland",
    "Adres":"Nieuwe Havenweg 84"
    }
  },
  {
    "type": "Feature",
    "geometry": {
       "type": "Point",
       "coordinates":  [ 5.83116471,51.99621859 ]
    },
    "properties": {
    "Scouting":"St. Bernulphus",
    "URL":"https://www.scouting.nl/scoutinggroep/st-bernulphus",
    "rang":"lokale groep",
    "type":"landscouts",
    "Straat":"Graaf van rechterenweg",
    "Huisnummer":"60",
    "Postcode":"6861BR",
    "Stad":"Oosterbeek",
    "Land":"Nederland",
    "Adres":"Graaf van rechterenweg 60"
    }
  },
  {
    "type": "Feature",
    "geometry": {
       "type": "Point",
       "coordinates":  [ 5.91937310,52.00040956 ]
    },
    "properties": {
    "Scouting":"Scouting Willem Alexander groep",
    "URL":"https://www.scouting.nl/scoutinggroep/scouting-willem-alexander-groep",
    "rang":"lokale groep",
    "type":"landscouts",
    "Straat":"Hommelseweg",
    "Huisnummer":"553",
    "Postcode":"6821LK",
    "Stad":"Arnhem",
    "Land":"Nederland",
    "Adres":"Hommelseweg 553"
    }
  },
  {
    "type": "Feature",
    "geometry": {
       "type": "Point",
       "coordinates":  [ 5.958014500,51.976551000 ]
    },
    "properties": {
    "Scouting":"Arnhem Band",
    "URL":"https://www.scouting.nl/scoutinggroep/arnhem-band",
    "rang":"lokale groep",
    "type":"muziekscouts",
    "Straat":"Vlamoven",
    "Huisnummer":"22",
    "Postcode":"6826TN",
    "Stad":"Arnhem",
    "Land":"Nederland",
    "Adres":"Vlamoven 22"
    }
  },
  {
    "type": "Feature",
    "geometry": {
       "type": "Point",
       "coordinates":  [ 5.86968933,51.96618319 ]
    },
    "properties": {
    "Scouting":"Scouting Schutgraaf Arnhem",
    "URL":"https://www.scouting.nl/scoutinggroep/scouting-schutgraaf-arnhem",
    "rang":"lokale groep",
    "type":"landscouts",
    "Straat":"Hannesstraatje",
    "Huisnummer":"4",
    "Postcode":"6843NV",
    "Stad":"Arnhem",
    "Land":"Nederland",
    "Adres":"Hannesstraatje 4"
    }
  },
  {
    "type": "Feature",
    "geometry": {
       "type": "Point",
       "coordinates":  [ 5.96350679,51.95862151 ]
    },
    "properties": {
    "Scouting":"St. Jorisgroep",
    "URL":"https://www.scouting.nl/scoutinggroep/st-jorisgroep",
    "rang":"lokale groep",
    "type":"landscouts",
    "Straat":"Paepestraat",
    "Huisnummer":"27",
    "Postcode":"6931CP",
    "Stad":"Westervoort",
    "Land":"Nederland",
    "Adres":"Paepestraat 27"
    }
  },
  {
    "type": "Feature",
    "geometry": {
       "type": "Point",
       "coordinates":  [ 6.07714197,52.05406895 ]
    },
    "properties": {
    "Scouting":"Scouting Dieren",
    "URL":"https://www.scouting.nl/scoutinggroep/scouting-dieren",
    "rang":"lokale groep",
    "type":"waterscouts",
    "Straat":"Kolonieweg",
    "Huisnummer":"9",
    "Postcode":"6952GZ",
    "Stad":"Dieren",
    "Land":"Nederland",
    "Adres":"Kolonieweg 9"
    }
  },
  {
    "type": "Feature",
    "geometry": {
       "type": "Point",
       "coordinates":  [ 6.04521940,52.10337174 ]
    },
    "properties": {
    "Scouting":"Tapawingo",
    "URL":"https://www.scouting.nl/scoutinggroep/tapawingo",
    "rang":"lokale groep",
    "type":"landscouts",
    "Straat":"Veldkantweg",
    "Huisnummer":"8C",
    "Postcode":"6961HJ",
    "Stad":"Eerbeek",
    "Land":"Nederland",
    "Adres":"Veldkantweg 8C"
    }
  },
  {
    "type": "Feature",
    "geometry": {
       "type": "Point",
       "coordinates":  [ 6.02592975,52.01544601 ]
    },
    "properties": {
    "Scouting":"Rhedense Pioniers",
    "URL":"https://www.scouting.nl/scoutinggroep/rhedense-pioniers",
    "rang":"lokale groep",
    "type":"landscouts",
    "Straat":"Heuvenseweg",
    "Huisnummer":"1C",
    "Postcode":"6991JE",
    "Stad":"Rheden",
    "Land":"Nederland",
    "Adres":"Heuvenseweg 1C"
    }
  },
  {
    "type": "Feature",
    "geometry": {
       "type": "Point",
       "coordinates":  [ 5.98401587,52.01690764 ]
    },
    "properties": {
    "Scouting":"Scoutinggroep De Markesteen",
    "URL":"https://www.scouting.nl/scoutinggroep/scoutinggroep-de-markesteen",
    "rang":"lokale groep",
    "type":"landscouts",
    "Straat":"Bovenallee",
    "Huisnummer":"3",
    "Postcode":"6881AJ",
    "Stad":"Velp (Gld)",
    "Land":"Nederland",
    "Adres":"Bovenallee 3"
    }
  },
  {
    "type": "Feature",
    "geometry": {
       "type": "Point",
       "coordinates":  [ 5.97922342,52.00826615 ]
    },
    "properties": {
    "Scouting":"Velpsche Woudloopers en de Olmen",
    "URL":"https://www.scouting.nl/scoutinggroep/velpsche-woudloopers-en-de-olmen",
    "rang":"lokale groep",
    "type":"landscouts",
    "Straat":"Beekhuizenseweg",
    "Huisnummer":"73A",
    "Postcode":"6881AE",
    "Stad":"Velp (Gld)",
    "Land":"Nederland",
    "Adres":"Beekhuizenseweg 73A"
    }
  },
  {
    "type": "Feature",
    "geometry": {
       "type": "Point",
       "coordinates":  [ 5.94268139,52.22594283 ]
    },
    "properties": {
    "Scouting":"Stadhouder Willem III/Lady Baden-Powell",
    "URL":"https://www.scouting.nl/scoutinggroep/stadhouder-willem-iii-lady-baden-powell",
    "rang":"lokale groep",
    "type":"landscouts",
    "Straat":"Jachtlaan",
    "Huisnummer":"4",
    "Postcode":"7313CP",
    "Stad":"Apeldoorn",
    "Land":"Nederland",
    "Adres":"Jachtlaan 4"
    }
  },
  {
    "type": "Feature",
    "geometry": {
       "type": "Point",
       "coordinates":  [ 5.94202010,52.18148226 ]
    },
    "properties": {
    "Scouting":"Scouting vereniging Ugchelse Woudlopers",
    "URL":"https://www.scouting.nl/scoutinggroep/scouting-vereniging-ugchelse-woudlopers",
    "rang":"lokale groep",
    "type":"landscouts",
    "Straat":"Hulkestein",
    "Huisnummer":"45",
    "Postcode":"7339AW",
    "Stad":"Ugchelen",
    "Land":"Nederland",
    "Adres":"Hulkestein 45"
    }
  },
  {
    "type": "Feature",
    "geometry": {
       "type": "Point",
       "coordinates":  [ 5.96764709,52.18014482 ]
    },
    "properties": {
    "Scouting":"Scoutinggroep Balmoral",
    "URL":"https://www.scouting.nl/scoutinggroep/scoutinggroep-balmoral",
    "rang":"lokale groep",
    "type":"landscouts",
    "Straat":"Oude Apeldoornseweg",
    "Huisnummer":"49",
    "Postcode":"7333NR",
    "Stad":"Apeldoorn",
    "Land":"Nederland",
    "Adres":"Oude Apeldoornseweg 49"
    }
  },
  {
    "type": "Feature",
    "geometry": {
       "type": "Point",
       "coordinates":  [ 5.99073177,52.22360008 ]
    },
    "properties": {
    "Scouting":"Dr. Ariënsgroep Apeldoorn",
    "URL":"https://www.scouting.nl/scoutinggroep/dr-ariënsgroep-apeldoorn",
    "rang":"lokale groep",
    "type":"landscouts",
    "Straat":"Zilverschoon",
    "Huisnummer":"118B",
    "Postcode":"7322GK",
    "Stad":"Apeldoorn",
    "Land":"Nederland",
    "Adres":"Zilverschoon 118B"
    }
  },
  {
    "type": "Feature",
    "geometry": {
       "type": "Point",
       "coordinates":  [ 5.98107550,52.22767423 ]
    },
    "properties": {
    "Scouting":"Mr. J.P.G. Moorrees",
    "URL":"https://www.scouting.nl/scoutinggroep/mr-j-p-g-moorrees",
    "rang":"lokale groep",
    "type":"landscouts",
    "Straat":"Gentiaanstraat",
    "Huisnummer":"331",
    "Postcode":"7322BK",
    "Stad":"Apeldoorn",
    "Land":"Nederland",
    "Adres":"Gentiaanstraat 331"
    }
  },
  {
    "type": "Feature",
    "geometry": {
       "type": "Point",
       "coordinates":  [ 5.925211500,52.193185000 ]
    },
    "properties": {
    "Scouting":"St.Victor",
    "URL":"https://www.scouting.nl/scoutinggroep/st-victor",
    "rang":"lokale groep",
    "type":"landscouts",
    "Straat":"Ordermolenweg",
    "Huisnummer":"148A",
    "Postcode":"7312SM",
    "Stad":"Apeldoorn",
    "Land":"Nederland",
    "Adres":"Ordermolenweg 148A"
    }
  },
  {
    "type": "Feature",
    "geometry": {
       "type": "Point",
       "coordinates":  [ 5.96050115,52.18493763 ]
    },
    "properties": {
    "Scouting":"Paulus & Petrus Dondersgroep",
    "URL":"https://www.scouting.nl/scoutinggroep/paulus-petrus-dondersgroep",
    "rang":"lokale groep",
    "type":"landscouts",
    "Straat":"Egerlaan",
    "Huisnummer":"7",
    "Postcode":"7334AD",
    "Stad":"Apeldoorn",
    "Land":"Nederland",
    "Adres":"Egerlaan 7"
    }
  },
  {
    "type": "Feature",
    "geometry": {
       "type": "Point",
       "coordinates":  [ 5.92393324,52.19665638 ]
    },
    "properties": {
    "Scouting":"Scoutinggroep JJB",
    "URL":"https://www.scouting.nl/scoutinggroep/scoutinggroep-jjb",
    "rang":"lokale groep",
    "type":"landscouts",
    "Straat":"Berghuizerweg",
    "Huisnummer":"149",
    "Postcode":"7312SN",
    "Stad":"Apeldoorn",
    "Land":"Nederland",
    "Adres":"Berghuizerweg 149"
    }
  },
  {
    "type": "Feature",
    "geometry": {
       "type": "Point",
       "coordinates":  [ 5.916856500,52.219745100 ]
    },
    "properties": {
    "Scouting":"Berg en Bos Groep",
    "URL":"https://www.scouting.nl/scoutinggroep/berg-en-bos-groep",
    "rang":"lokale groep",
    "type":"landscouts",
    "Straat":"Soerenseweg",
    "Huisnummer":"212NABIJ 210",
    "Postcode":"7313ER",
    "Stad":"Apeldoorn",
    "Land":"Nederland",
    "Adres":"Soerenseweg 212NABIJ 210"
    }
  },
  {
    "type": "Feature",
    "geometry": {
       "type": "Point",
       "coordinates":  [ 6.00508108,52.18422179 ]
    },
    "properties": {
    "Scouting":"Hertog van Gelregroep",
    "URL":"https://www.scouting.nl/scoutinggroep/hertog-van-gelregroep",
    "rang":"lokale groep",
    "type":"landscouts",
    "Straat":"Polderweg",
    "Huisnummer":"4",
    "Postcode":"7327GX",
    "Stad":"Apeldoorn",
    "Land":"Nederland",
    "Adres":"Polderweg 4"
    }
  },
  {
    "type": "Feature",
    "geometry": {
       "type": "Point",
       "coordinates":  [ 6.02029533,52.21181197 ]
    },
    "properties": {
    "Scouting":"Marca Appoldro",
    "URL":"https://www.scouting.nl/scoutinggroep/marca-appoldro",
    "rang":"lokale groep",
    "type":"scouts met een beperking",
    "Straat":"Lupineweg",
    "Huisnummer":"75",
    "Postcode":"7325AH",
    "Stad":"Apeldoorn",
    "Land":"Nederland",
    "Adres":"Lupineweg 75"
    }
  },
  {
    "type": "Feature",
    "geometry": {
       "type": "Point",
       "coordinates":  [ 5.93111595,52.28059974 ]
    },
    "properties": {
    "Scouting":"Scouting Maarten van Rossum",
    "URL":"https://www.scouting.nl/scoutinggroep/scouting-maarten-van-rossum",
    "rang":"lokale groep",
    "type":"landscouts",
    "Straat":"Elspeterweg",
    "Huisnummer":"59",
    "Postcode":"8171ES",
    "Stad":"Vaassen",
    "Land":"Nederland",
    "Adres":"Elspeterweg 59"
    }
  },
  {
    "type": "Feature",
    "geometry": {
       "type": "Point",
       "coordinates":  [ 5.94594700,52.29333285 ]
    },
    "properties": {
    "Scouting":"Scoutinggroep van Isendoorn",
    "URL":"https://www.scouting.nl/scoutinggroep/scoutinggroep-van-isendoorn",
    "rang":"lokale groep",
    "type":"landscouts",
    "Straat":"Cannenburgherweg",
    "Huisnummer":"15",
    "Postcode":"8171PV",
    "Stad":"Vaassen",
    "Land":"Nederland",
    "Adres":"Cannenburgherweg 15"
    }
  },
  {
    "type": "Feature",
    "geometry": {
       "type": "Point",
       "coordinates":  [ 6.00331477,52.37989065 ]
    },
    "properties": {
    "Scouting":"Scouting Buys Ballot Epe/Heerde",
    "URL":"https://www.scouting.nl/scoutinggroep/scouting-buys-ballot-epe-heerde",
    "rang":"lokale groep",
    "type":"landscouts",
    "Straat":"Kooiweg",
    "Huisnummer":"8A",
    "Postcode":"8181PB",
    "Stad":"Heerde",
    "Land":"Nederland",
    "Adres":"Kooiweg 8A"
    }
  },
  {
    "type": "Feature",
    "geometry": {
       "type": "Point",
       "coordinates":  [ 6.02797868,52.12226097 ]
    },
    "properties": {
    "Scouting":"Scoutinggroep Valeouwe",
    "URL":"https://www.scouting.nl/scoutinggroep/scoutinggroep-valeouwe",
    "rang":"lokale groep",
    "type":"landscouts",
    "Straat":"Lonapark",
    "Huisnummer":"10",
    "Postcode":"7371EH",
    "Stad":"Loenen",
    "Land":"Nederland",
    "Adres":"Lonapark 10"
    }
  },
  {
    "type": "Feature",
    "geometry": {
       "type": "Point",
       "coordinates":  [ 5.27300988,52.37089269 ]
    },
    "properties": {
    "Scouting":"Regio Noord-Veluwe / Flevoland",
    "URL":"https://www.scouting.nl/scoutinggroep/regio-noord-veluwe-flevoland",
    "rang":"regio",
    "type":"scouts",
    "Straat":"Albrecht Dürerweg",
    "Huisnummer":"115",
    "Postcode":"1328TD",
    "Stad":"Almere",
    "Land":"Nederland",
    "Adres":"Albrecht Dürerweg 115"
    }
  },
  {
    "type": "Feature",
    "geometry": {
       "type": "Point",
       "coordinates":  [ 5.82112161,52.45979733 ]
    },
    "properties": {
    "Scouting":"SCOUTING N.S. RAMBONNET",
    "URL":"https://www.scouting.nl/scoutinggroep/scouting-n-s-rambonnet",
    "rang":"lokale groep",
    "type":"waterscouts",
    "Straat":"J.P. Broekhovenstraat",
    "Huisnummer":"40",
    "Postcode":"8081HC",
    "Stad":"Elburg",
    "Land":"Nederland",
    "Adres":"J.P. Broekhovenstraat 40"
    }
  },
  {
    "type": "Feature",
    "geometry": {
       "type": "Point",
       "coordinates":  [ 5.62014696,52.31543709 ]
    },
    "properties": {
    "Scouting":"Scouting Irmin-Taweb",
    "URL":"https://www.scouting.nl/scoutinggroep/scouting-irmin-taweb",
    "rang":"lokale groep",
    "type":"landscouts",
    "Straat":"Kalkoenweg",
    "Huisnummer":"23",
    "Postcode":"3851SB",
    "Stad":"Ermelo",
    "Land":"Nederland",
    "Adres":"Kalkoenweg 23"
    }
  },
  {
    "type": "Feature",
    "geometry": {
       "type": "Point",
       "coordinates":  [ 5.59455720,52.28672677 ]
    },
    "properties": {
    "Scouting":"Alexandergroep",
    "URL":"https://www.scouting.nl/scoutinggroep/alexandergroep",
    "rang":"lokale groep",
    "type":"landscouts",
    "Straat":"Watervalweg",
    "Huisnummer":"175",
    "Postcode":"3853PS",
    "Stad":"Ermelo",
    "Land":"Nederland",
    "Adres":"Watervalweg 175"
    }
  },
  {
    "type": "Feature",
    "geometry": {
       "type": "Point",
       "coordinates":  [ 5.69525240,52.52363501 ]
    },
    "properties": {
    "Scouting":"Flevo-Scouts",
    "URL":"https://www.scouting.nl/scoutinggroep/flevo-scouts",
    "rang":"lokale groep",
    "type":"landscouts",
    "Straat":"Gildepenningdreef",
    "Huisnummer":"1",
    "Postcode":"8253BD",
    "Stad":"Dronten",
    "Land":"Nederland",
    "Adres":"Gildepenningdreef 1"
    }
  },
  {
    "type": "Feature",
    "geometry": {
       "type": "Point",
       "coordinates":  [ 5.86431810,52.40853820 ]
    },
    "properties": {
    "Scouting":"Gustaaf Adolf groep",
    "URL":"https://www.scouting.nl/scoutinggroep/gustaaf-adolf-groep",
    "rang":"lokale groep",
    "type":"landscouts",
    "Straat":"Oostloo",
    "Huisnummer":"8",
    "Postcode":"8084PK",
    "Stad":"'t Harde",
    "Land":"Nederland",
    "Adres":"Oostloo 8"
    }
  },
  {
    "type": "Feature",
    "geometry": {
       "type": "Point",
       "coordinates":  [ 5.61502271,52.35635408 ]
    },
    "properties": {
    "Scouting":"Tjerk Hiddes",
    "URL":"https://www.scouting.nl/scoutinggroep/tjerk-hiddes",
    "rang":"lokale groep",
    "type":"waterscouts",
    "Straat":"Strekdam",
    "Huisnummer":"53",
    "Postcode":"3841WD",
    "Stad":"Harderwijk",
    "Land":"Nederland",
    "Adres":"Strekdam 53"
    }
  },
  {
    "type": "Feature",
    "geometry": {
       "type": "Point",
       "coordinates":  [ 5.63560972,52.32472943 ]
    },
    "properties": {
    "Scouting":"Verbraak Margriet Groep",
    "URL":"https://www.scouting.nl/scoutinggroep/verbraak-margriet-groep",
    "rang":"lokale groep",
    "type":"landscouts",
    "Straat":"Strokelweg",
    "Huisnummer":"6",
    "Postcode":"3847LR",
    "Stad":"Harderwijk",
    "Land":"Nederland",
    "Adres":"Strokelweg 6"
    }
  },
  {
    "type": "Feature",
    "geometry": {
       "type": "Point",
       "coordinates":  [ 5.63390380,52.32631574 ]
    },
    "properties": {
    "Scouting":"Scouting Ragay-Redoz Harderwijk",
    "URL":"https://www.scouting.nl/scoutinggroep/scouting-ragay-redoz-harderwijk",
    "rang":"lokale groep",
    "type":"landscouts",
    "Straat":"Strokelweg",
    "Huisnummer":"4",
    "Postcode":"3847LR",
    "Stad":"Harderwijk",
    "Land":"Nederland",
    "Adres":"Strokelweg 4"
    }
  },
  {
    "type": "Feature",
    "geometry": {
       "type": "Point",
       "coordinates":  [ 5.47362500,52.52427961 ]
    },
    "properties": {
    "Scouting":"John F Kennedy-groep",
    "URL":"https://www.scouting.nl/scoutinggroep/john-f-kennedy-groep",
    "rang":"lokale groep",
    "type":"landscouts",
    "Straat":"Kofschip",
    "Huisnummer":"6A",
    "Postcode":"8223EZ",
    "Stad":"Lelystad",
    "Land":"Nederland",
    "Adres":"Kofschip 6A"
    }
  },
  {
    "type": "Feature",
    "geometry": {
       "type": "Point",
       "coordinates":  [ 5.41746040,52.48614235 ]
    },
    "properties": {
    "Scouting":"Bramzijger",
    "URL":"https://www.scouting.nl/scoutinggroep/bramzijger",
    "rang":"lokale groep",
    "type":"waterscouts",
    "Straat":"Uilenweg",
    "Huisnummer":"9",
    "Postcode":"8245AB",
    "Stad":"Lelystad",
    "Land":"Nederland",
    "Adres":"Uilenweg 9"
    }
  },
  {
    "type": "Feature",
    "geometry": {
       "type": "Point",
       "coordinates":  [ 5.47430901,52.54308307 ]
    },
    "properties": {
    "Scouting":"Ascanen Groep",
    "URL":"https://www.scouting.nl/scoutinggroep/ascanen-groep",
    "rang":"lokale groep",
    "type":"landscouts",
    "Straat":"Veldweg",
    "Huisnummer":"98",
    "Postcode":"8231SB",
    "Stad":"Lelystad",
    "Land":"Nederland",
    "Adres":"Veldweg 98"
    }
  },
  {
    "type": "Feature",
    "geometry": {
       "type": "Point",
       "coordinates":  [ 5.80686175,52.37624302 ]
    },
    "properties": {
    "Scouting":"Scouting Nunspeet",
    "URL":"https://www.scouting.nl/scoutinggroep/scouting-nunspeet",
    "rang":"lokale groep",
    "type":"landscouts",
    "Straat":"Zandenboslaan",
    "Huisnummer":"80",
    "Postcode":"8072PP",
    "Stad":"Nunspeet",
    "Land":"Nederland",
    "Adres":"Zandenboslaan 80"
    }
  },
  {
    "type": "Feature",
    "geometry": {
       "type": "Point",
       "coordinates":  [ 5.45580655,52.22418182 ]
    },
    "properties": {
    "Scouting":"Scouting Nijkerk",
    "URL":"https://www.scouting.nl/scoutinggroep/scouting-nijkerk",
    "rang":"lokale groep",
    "type":"landscouts",
    "Straat":"Bunschoterweg",
    "Huisnummer":"29B",
    "Postcode":"3861PD",
    "Stad":"Nijkerk",
    "Land":"Nederland",
    "Adres":"Bunschoterweg 29B"
    }
  },
  {
    "type": "Feature",
    "geometry": {
       "type": "Point",
       "coordinates":  [ 5.465237600,52.256870800 ]
    },
    "properties": {
    "Scouting":"kiliaen van Rensselaer II",
    "URL":"https://www.scouting.nl/scoutinggroep/kiliaen-van-rensselaer-ii",
    "rang":"lokale groep",
    "type":"waterscouts",
    "Straat":"Vedderkade",
    "Huisnummer":"2",
    "Postcode":"3861NR",
    "Stad":"Nijkerk",
    "Land":"Nederland",
    "Adres":"Vedderkade 2"
    }
  },
  {
    "type": "Feature",
    "geometry": {
       "type": "Point",
       "coordinates":  [ 5.63967522,52.24447448 ]
    },
    "properties": {
    "Scouting":"Kon-Tiki",
    "URL":"https://www.scouting.nl/scoutinggroep/kon-tiki",
    "rang":"lokale groep",
    "type":"landscouts",
    "Straat":"Garderenseweg",
    "Huisnummer":"144B",
    "Postcode":"3881NC",
    "Stad":"Putten",
    "Land":"Nederland",
    "Adres":"Garderenseweg 144B"
    }
  },
  {
    "type": "Feature",
    "geometry": {
       "type": "Point",
       "coordinates":  [ 5.52884572,52.30675860 ]
    },
    "properties": {
    "Scouting":"Scouting Jan Wandelaar",
    "URL":"https://www.scouting.nl/scoutinggroep/scouting-jan-wandelaar",
    "rang":"lokale groep",
    "type":"waterscouts",
    "Straat":"Dasselaarweg",
    "Huisnummer":"49",
    "Postcode":"3896LT",
    "Stad":"Zeewolde",
    "Land":"Nederland",
    "Adres":"Dasselaarweg 49"
    }
  },
  {
    "type": "Feature",
    "geometry": {
       "type": "Point",
       "coordinates":  [ 5.24077422,52.38516703 ]
    },
    "properties": {
    "Scouting":"Hannie Schaft Groep",
    "URL":"https://www.scouting.nl/scoutinggroep/hannie-schaft-groep",
    "rang":"lokale groep",
    "type":"waterscouts",
    "Straat":"Weg 1940-1945",
    "Huisnummer":"14",
    "Postcode":"1318EL",
    "Stad":"Almere",
    "Land":"Nederland",
    "Adres":"Weg 1940-1945 14"
    }
  },
  {
    "type": "Feature",
    "geometry": {
       "type": "Point",
       "coordinates":  [ 5.21027457,52.35172307 ]
    },
    "properties": {
    "Scouting":"Cornelis Lelygroep",
    "URL":"https://www.scouting.nl/scoutinggroep/cornelis-lelygroep",
    "rang":"lokale groep",
    "type":"waterscouts",
    "Straat":"Scoutingpad",
    "Huisnummer":"6",
    "Postcode":"1351GN",
    "Stad":"Almere",
    "Land":"Nederland",
    "Adres":"Scoutingpad 6"
    }
  },
  {
    "type": "Feature",
    "geometry": {
       "type": "Point",
       "coordinates":  [ 5.27544402,52.40854802 ]
    },
    "properties": {
    "Scouting":"De Meridiaan",
    "URL":"https://www.scouting.nl/scoutinggroep/de-meridiaan",
    "rang":"lokale groep",
    "type":"landscouts",
    "Straat":"Maurice Garinpad",
    "Huisnummer":"15",
    "Postcode":"1335LZ",
    "Stad":"Almere",
    "Land":"Nederland",
    "Adres":"Maurice Garinpad 15"
    }
  },
  {
    "type": "Feature",
    "geometry": {
       "type": "Point",
       "coordinates":  [ 6.21412719,52.19916665 ]
    },
    "properties": {
    "Scouting":"kompasnaald gorssel",
    "URL":"https://www.scouting.nl/scoutinggroep/kompasnaald-gorssel",
    "rang":"lokale groep",
    "type":"landscouts",
    "Straat":"Kwekerijweg",
    "Huisnummer":"3",
    "Postcode":"7213AX",
    "Stad":"Gorssel",
    "Land":"Nederland",
    "Adres":"Kwekerijweg 3"
    }
  },
  {
    "type": "Feature",
    "geometry": {
       "type": "Point",
       "coordinates":  [ 6.21503272,52.19987937 ]
    },
    "properties": {
    "Scouting":"Scouting IJsselgroep",
    "URL":"https://www.scouting.nl/scoutinggroep/scouting-ijsselgroep",
    "rang":"lokale groep",
    "type":"landscouts",
    "Straat":"Kwekerijweg",
    "Huisnummer":"5",
    "Postcode":"7213AX",
    "Stad":"Gorssel",
    "Land":"Nederland",
    "Adres":"Kwekerijweg 5"
    }
  },
  {
    "type": "Feature",
    "geometry": {
       "type": "Point",
       "coordinates":  [ 6.39412791,52.14470345 ]
    },
    "properties": {
    "Scouting":"Graaf Otto Groep",
    "URL":"https://www.scouting.nl/scoutinggroep/graaf-otto-groep",
    "rang":"lokale groep",
    "type":"waterscouts",
    "Straat":"Gageldijk",
    "Huisnummer":"2A",
    "Postcode":"7241RJ",
    "Stad":"Lochem",
    "Land":"Nederland",
    "Adres":"Gageldijk 2A"
    }
  },
  {
    "type": "Feature",
    "geometry": {
       "type": "Point",
       "coordinates":  [ 6.39149802,52.14518077 ]
    },
    "properties": {
    "Scouting":"witte wieven groep",
    "URL":"https://www.scouting.nl/scoutinggroep/witte-wieven-groep",
    "rang":"lokale groep",
    "type":"landscouts",
    "Straat":"Vordenseweg",
    "Huisnummer":"9",
    "Postcode":"7241RL",
    "Stad":"Lochem",
    "Land":"Nederland",
    "Adres":"Vordenseweg 9"
    }
  },
  {
    "type": "Feature",
    "geometry": {
       "type": "Point",
       "coordinates":  [ 6.13907404,52.18207641 ]
    },
    "properties": {
    "Scouting":"Hélène H. Wilkensgroep",
    "URL":"https://www.scouting.nl/scoutinggroep/hélène-h-wilkensgroep",
    "rang":"lokale groep",
    "type":"landscouts",
    "Straat":"de Halmen",
    "Huisnummer":"1A",
    "Postcode":"7383BG",
    "Stad":"Voorst (Gld)",
    "Land":"Nederland",
    "Adres":"de Halmen 1A"
    }
  },
  {
    "type": "Feature",
    "geometry": {
       "type": "Point",
       "coordinates":  [ 6.32176144,52.08696284 ]
    },
    "properties": {
    "Scouting":"Scouting David G. Alford",
    "URL":"https://www.scouting.nl/scoutinggroep/scouting-david-g-alford",
    "rang":"lokale groep",
    "type":"landscouts",
    "Straat":"Hilverinkweg",
    "Huisnummer":"2A",
    "Postcode":"7251PA",
    "Stad":"Vorden",
    "Land":"Nederland",
    "Adres":"Hilverinkweg 2A"
    }
  },
  {
    "type": "Feature",
    "geometry": {
       "type": "Point",
       "coordinates":  [ 6.25664623,52.13524145 ]
    },
    "properties": {
    "Scouting":"Zona",
    "URL":"https://www.scouting.nl/scoutinggroep/zona",
    "rang":"lokale groep",
    "type":"landscouts",
    "Straat":"Vordenseweg",
    "Huisnummer":"13",
    "Postcode":"7231PA",
    "Stad":"Warnsveld",
    "Land":"Nederland",
    "Adres":"Vordenseweg 13"
    }
  },
  {
    "type": "Feature",
    "geometry": {
       "type": "Point",
       "coordinates":  [ 6.20829794,52.15293825 ]
    },
    "properties": {
    "Scouting":"Karel Doorman Groep",
    "URL":"https://www.scouting.nl/scoutinggroep/karel-doorman-groep",
    "rang":"lokale groep",
    "type":"scouts met een beperking",
    "Straat":"Deventerachterpad",
    "Huisnummer":"3",
    "Postcode":"7203AW",
    "Stad":"Zutphen",
    "Land":"Nederland",
    "Adres":"Deventerachterpad 3"
    }
  },
  {
    "type": "Feature",
    "geometry": {
       "type": "Point",
       "coordinates":  [ 6.22433518,52.18737396 ]
    },
    "properties": {
    "Scouting":"Scoutinggroep Sint Joris",
    "URL":"https://www.scouting.nl/scoutinggroep/scoutinggroep-sint-joris",
    "rang":"lokale groep",
    "type":"landscouts",
    "Straat":"Lindeboomweg",
    "Huisnummer":"6B",
    "Postcode":"7213LS",
    "Stad":"Gorssel",
    "Land":"Nederland",
    "Adres":"Lindeboomweg 6B"
    }
  },
  {
    "type": "Feature",
    "geometry": {
       "type": "Point",
       "coordinates":  [ 6.24655397,52.16620832 ]
    },
    "properties": {
    "Scouting":"Chr. Scoutinggroep Jan van Riebeeck",
    "URL":"https://www.scouting.nl/scoutinggroep/chr-scoutinggroep-jan-van-riebeeck",
    "rang":"lokale groep",
    "type":"landscouts",
    "Straat":"Boedelhofweg",
    "Huisnummer":"108",
    "Postcode":"7211BT",
    "Stad":"Eefde",
    "Land":"Nederland",
    "Adres":"Boedelhofweg 108"
    }
  },
  {
    "type": "Feature",
    "geometry": {
       "type": "Point",
       "coordinates":  [ 6.22550072,52.12958863 ]
    },
    "properties": {
    "Scouting":"Nautilus",
    "URL":"https://www.scouting.nl/scoutinggroep/nautilus",
    "rang":"lokale groep",
    "type":"waterscouts",
    "Straat":"Paul Rodenkolaan",
    "Huisnummer":"101",
    "Postcode":"7207CE",
    "Stad":"Zutphen",
    "Land":"Nederland",
    "Adres":"Paul Rodenkolaan 101"
    }
  },
  {
    "type": "Feature",
    "geometry": {
       "type": "Point",
       "coordinates":  [ 5.68690046,52.01002214 ]
    },
    "properties": {
    "Scouting":"Scouting Bennekom",
    "URL":"https://www.scouting.nl/scoutinggroep/scouting-bennekom",
    "rang":"lokale groep",
    "type":"landscouts",
    "Straat":"Selterskampweg",
    "Huisnummer":"68",
    "Postcode":"6721AV",
    "Stad":"Bennekom",
    "Land":"Nederland",
    "Adres":"Selterskampweg 68"
    }
  },
  {
    "type": "Feature",
    "geometry": {
       "type": "Point",
       "coordinates":  [ 5.67292113,51.95802414 ]
    },
    "properties": {
    "Scouting":"Waterscouting Musinga-Rijn",
    "URL":"https://www.scouting.nl/scoutinggroep/waterscouting-musinga-rijn",
    "rang":"lokale groep",
    "type":"waterscouts",
    "Straat":"Aan de Rijn",
    "Huisnummer":"5A",
    "Postcode":"6701PB",
    "Stad":"Wageningen",
    "Land":"Nederland",
    "Adres":"Aan de Rijn 5A"
    }
  },
  {
    "type": "Feature",
    "geometry": {
       "type": "Point",
       "coordinates":  [ 5.69077628,52.04032031 ]
    },
    "properties": {
    "Scouting":"Langenberg-ede",
    "URL":"https://www.scouting.nl/scoutinggroep/langenberg-ede",
    "rang":"lokale groep",
    "type":"landscouts",
    "Straat":"Buurtmeesterweg",
    "Huisnummer":"27",
    "Postcode":"6711HL",
    "Stad":"Ede",
    "Land":"Nederland",
    "Adres":"Buurtmeesterweg 27"
    }
  },
  {
    "type": "Feature",
    "geometry": {
       "type": "Point",
       "coordinates":  [ 5.66199234,52.05378166 ]
    },
    "properties": {
    "Scouting":"Pieter Maritz",
    "URL":"https://www.scouting.nl/scoutinggroep/pieter-maritz",
    "rang":"lokale groep",
    "type":"landscouts",
    "Straat":"Doolhoflaan",
    "Huisnummer":"1",
    "Postcode":"6718ZP",
    "Stad":"Ede",
    "Land":"Nederland",
    "Adres":"Doolhoflaan 1"
    }
  },
  {
    "type": "Feature",
    "geometry": {
       "type": "Point",
       "coordinates":  [ 5.620005900,52.038466600 ]
    },
    "properties": {
    "Scouting":"Scouting Jan Hilgers",
    "URL":"https://www.scouting.nl/scoutinggroep/scouting-jan-hilgers",
    "rang":"lokale groep",
    "type":"landscouts",
    "Straat":"Dwarsweg",
    "Huisnummer":"13",
    "Postcode":"6715AT",
    "Stad":"Ede",
    "Land":"Nederland",
    "Adres":"Dwarsweg 13"
    }
  },
  {
    "type": "Feature",
    "geometry": {
       "type": "Point",
       "coordinates":  [ 5.67845924,52.05136191 ]
    },
    "properties": {
    "Scouting":"Scouting Tarcisius Ede",
    "URL":"https://www.scouting.nl/scoutinggroep/scouting-tarcisius-ede",
    "rang":"lokale groep",
    "type":"scouts met een beperking",
    "Straat":"Bosrand",
    "Huisnummer":"17A",
    "Postcode":"6718ZN",
    "Stad":"Ede",
    "Land":"Nederland",
    "Adres":"Bosrand 17A"
    }
  },
  {
    "type": "Feature",
    "geometry": {
       "type": "Point",
       "coordinates":  [ 5.74874135,51.89868817 ]
    },
    "properties": {
    "Scouting":"St Scouting de Spoorzoekers",
    "URL":"https://www.scouting.nl/scoutinggroep/st-scouting-de-spoorzoekers",
    "rang":"lokale groep",
    "type":"landscouts",
    "Straat":"Schoolstraat",
    "Huisnummer":"5A",
    "Postcode":"6674AJ",
    "Stad":"Herveld",
    "Land":"Nederland",
    "Adres":"Schoolstraat 5A"
    }
  },
  {
    "type": "Feature",
    "geometry": {
       "type": "Point",
       "coordinates":  [ 5.82044950,51.99317687 ]
    },
    "properties": {
    "Scouting":"OPV-Schoonoord",
    "URL":"https://www.scouting.nl/scoutinggroep/opv-schoonoord",
    "rang":"lokale groep",
    "type":"landscouts",
    "Straat":"Sportlaan",
    "Huisnummer":"2",
    "Postcode":"6861AG",
    "Stad":"Oosterbeek",
    "Land":"Nederland",
    "Adres":"Sportlaan 2"
    }
  },
  {
    "type": "Feature",
    "geometry": {
       "type": "Point",
       "coordinates":  [ 5.73480526,51.97615751 ]
    },
    "properties": {
    "Scouting":"Emma groep Renkum",
    "URL":"https://www.scouting.nl/scoutinggroep/emma-groep-renkum",
    "rang":"lokale groep",
    "type":"landscouts",
    "Straat":"Teppemastraat",
    "Huisnummer":"2",
    "Postcode":"6871GM",
    "Stad":"Renkum",
    "Land":"Nederland",
    "Adres":"Teppemastraat 2"
    }
  },
  {
    "type": "Feature",
    "geometry": {
       "type": "Point",
       "coordinates":  [ 5.56090691,51.96859935 ]
    },
    "properties": {
    "Scouting":"Jhr. Schimmelpenninckgroep",
    "URL":"https://www.scouting.nl/scoutinggroep/jhr-schimmelpenninck",
    "rang":"lokale groep",
    "type":"landscouts",
    "Straat":"Reumersweg",
    "Huisnummer":"27",
    "Postcode":"3912AH",
    "Stad":"Rhenen",
    "Land":"Nederland",
    "Adres":"Reumersweg 27"
    }
  },
  {
    "type": "Feature",
    "geometry": {
       "type": "Point",
       "coordinates":  [ 5.48714733,52.08602330 ]
    },
    "properties": {
    "Scouting":"Scouting Scherpenzeel e.o.",
    "URL":"https://www.scouting.nl/scoutinggroep/scouting-scherpenzeel-e-o",
    "rang":"lokale groep",
    "type":"landscouts",
    "Straat":"De Breelaan",
    "Huisnummer":"5",
    "Postcode":"3925HX",
    "Stad":"Scherpenzeel (Gld)",
    "Land":"Nederland",
    "Adres":"De Breelaan 5"
    }
  },
  {
    "type": "Feature",
    "geometry": {
       "type": "Point",
       "coordinates":  [ 5.53609198,52.01536847 ]
    },
    "properties": {
    "Scouting":"De Zwervers",
    "URL":"https://www.scouting.nl/scoutinggroep/de-zwervers-1",
    "rang":"lokale groep",
    "type":"landscouts",
    "Straat":"Zandheuvelweg",
    "Huisnummer":"2A",
    "Postcode":"3904MD",
    "Stad":"Veenendaal",
    "Land":"Nederland",
    "Adres":"Zandheuvelweg 2A"
    }
  },
  {
    "type": "Feature",
    "geometry": {
       "type": "Point",
       "coordinates":  [ 5.69764996,51.97855455 ]
    },
    "properties": {
    "Scouting":"Scouting Die Wiltgraeff",
    "URL":"https://www.scouting.nl/scoutinggroep/scouting-die-wiltgraeff",
    "rang":"lokale groep",
    "type":"landscouts",
    "Straat":"Scheidingslaan",
    "Huisnummer":"30",
    "Postcode":"6704PN",
    "Stad":"Wageningen",
    "Land":"Nederland",
    "Adres":"Scheidingslaan 30"
    }
  },
  {
    "type": "Feature",
    "geometry": {
       "type": "Point",
       "coordinates":  [ 5.23909820,51.95952794 ]
    },
    "properties": {
    "Scouting":"Regio Rivierenland",
    "URL":"https://www.scouting.nl/scoutinggroep/regio-rivierenland",
    "rang":"regio",
    "type":"scouts",
    "Straat":"Berkeboom",
    "Huisnummer":"4",
    "Postcode":"4101WP",
    "Stad":"Culemborg",
    "Land":"Nederland",
    "Adres":"Berkeboom 4"
    }
  },
  {
    "type": "Feature",
    "geometry": {
       "type": "Point",
       "coordinates":  [ 5.21667508,51.95981719 ]
    },
    "properties": {
    "Scouting":"St. Stanislaus",
    "URL":"https://www.scouting.nl/scoutinggroep/st-stanislaus",
    "rang":"lokale groep",
    "type":"landscouts",
    "Straat":"Steenovenslaan",
    "Huisnummer":"20",
    "Postcode":"4101AM",
    "Stad":"Culemborg",
    "Land":"Nederland",
    "Adres":"Steenovenslaan 20"
    }
  },
  {
    "type": "Feature",
    "geometry": {
       "type": "Point",
       "coordinates":  [ 5.21761981,51.96065844 ]
    },
    "properties": {
    "Scouting":"Triton Scouting Culemborg",
    "URL":"https://www.scouting.nl/scoutinggroep/triton-scouting-culemborg",
    "rang":"lokale groep",
    "type":"waterscouts",
    "Straat":"Steenovenslaan",
    "Huisnummer":"4",
    "Postcode":"4101AM",
    "Stad":"Culemborg",
    "Land":"Nederland",
    "Adres":"Steenovenslaan 4"
    }
  },
  {
    "type": "Feature",
    "geometry": {
       "type": "Point",
       "coordinates":  [ 5.43234500,51.84863606 ]
    },
    "properties": {
    "Scouting":"Paulusgroep",
    "URL":"https://www.scouting.nl/scoutinggroep/paulusgroep",
    "rang":"lokale groep",
    "type":"landscouts",
    "Straat":"de Paulus",
    "Huisnummer":"1",
    "Postcode":"6621CB",
    "Stad":"Dreumel",
    "Land":"Nederland",
    "Adres":"de Paulus 1"
    }
  },
  {
    "type": "Feature",
    "geometry": {
       "type": "Point",
       "coordinates":  [ 5.42651102,51.89974057 ]
    },
    "properties": {
    "Scouting":"Scouting Phoenix",
    "URL":"https://www.scouting.nl/scoutinggroep/scouting-phoenix-1",
    "rang":"lokale groep",
    "type":"scouts met een beperking",
    "Straat":"de Hennepe",
    "Huisnummer":"199",
    "Postcode":"4003AD",
    "Stad":"Tiel",
    "Land":"Nederland",
    "Adres":"de Hennepe 199"
    }
  },
  {
    "type": "Feature",
    "geometry": {
       "type": "Point",
       "coordinates":  [ 5.43766369,51.95639688 ]
    },
    "properties": {
    "Scouting":"St.Scouting Saffatin Maurik",
    "URL":"https://www.scouting.nl/scoutinggroep/st-scouting-saffatin-maurik",
    "rang":"lokale groep",
    "type":"landscouts",
    "Straat":"Driesweg",
    "Huisnummer":"21",
    "Postcode":"4021HK",
    "Stad":"Maurik",
    "Land":"Nederland",
    "Adres":"Driesweg 21"
    }
  },
  {
    "type": "Feature",
    "geometry": {
       "type": "Point",
       "coordinates":  [ 5.85195416,51.78943325 ]
    },
    "properties": {
    "Scouting":"Regio ZON",
    "URL":"https://www.scouting.nl/scoutinggroep/regio-zon",
    "rang":"regio",
    "type":"scouts met een beperking",
    "Straat":"De Vang",
    "Huisnummer":"2",
    "Postcode":"6581DR",
    "Stad":"Malden",
    "Land":"Nederland",
    "Adres":"De Vang 2"
    }
  },
  {
    "type": "Feature",
    "geometry": {
       "type": "Point",
       "coordinates":  [ 5.89002961,51.82512875 ]
    },
    "properties": {
    "Scouting":"Scouting Keizer Karel",
    "URL":"https://www.scouting.nl/scoutinggroep/scouting-keizer-karel",
    "rang":"lokale groep",
    "type":"scouts met een beperking",
    "Straat":"Sophiaweg",
    "Huisnummer":"450",
    "Postcode":"6523NJ",
    "Stad":"Nijmegen",
    "Land":"Nederland",
    "Adres":"Sophiaweg 450"
    }
  },
  {
    "type": "Feature",
    "geometry": {
       "type": "Point",
       "coordinates":  [ 5.87556928,51.81932168 ]
    },
    "properties": {
    "Scouting":"st. scouting brakkenstein m",
    "URL":"https://www.scouting.nl/scoutinggroep/st-scouting-brakkenstein-m",
    "rang":"lokale groep",
    "type":"landscouts",
    "Straat":"d'Almarasweg",
    "Huisnummer":"22C",
    "Postcode":"6525DW",
    "Stad":"Nijmegen",
    "Land":"Nederland",
    "Adres":"d'Almarasweg 22C"
    }
  },
  {
    "type": "Feature",
    "geometry": {
       "type": "Point",
       "coordinates":  [ 5.88472405,51.82864893 ]
    },
    "properties": {
    "Scouting":"Scouting Paul Kruger",
    "URL":"https://www.scouting.nl/scoutinggroep/scouting-paul-kruger",
    "rang":"lokale groep",
    "type":"landscouts",
    "Straat":"Kwakkenbergweg",
    "Huisnummer":"10",
    "Postcode":"6523MN",
    "Stad":"Nijmegen",
    "Land":"Nederland",
    "Adres":"Kwakkenbergweg 10"
    }
  },
  {
    "type": "Feature",
    "geometry": {
       "type": "Point",
       "coordinates":  [ 5.61592938,51.88211938 ]
    },
    "properties": {
    "Scouting":"Scouting de Rietkampers",
    "URL":"https://www.scouting.nl/scoutinggroep/scouting-de-rietkampers",
    "rang":"lokale groep",
    "type":"scouts met een beperking",
    "Straat":"Koningstraat",
    "Huisnummer":"114",
    "Postcode":"6654AH",
    "Stad":"Afferden",
    "Land":"Nederland",
    "Adres":"Koningstraat 114"
    }
  },
  {
    "type": "Feature",
    "geometry": {
       "type": "Point",
       "coordinates":  [ 5.75417334,51.87428793 ]
    },
    "properties": {
    "Scouting":"Scouting Ewijk",
    "URL":"https://www.scouting.nl/scoutinggroep/scouting-ewijk",
    "rang":"lokale groep",
    "type":"landscouts",
    "Straat":"Binnenweg",
    "Huisnummer":"4B",
    "Postcode":"6644KD",
    "Stad":"Ewijk",
    "Land":"Nederland",
    "Adres":"Binnenweg 4B"
    }
  },
  {
    "type": "Feature",
    "geometry": {
       "type": "Point",
       "coordinates":  [ 5.70036343,51.88145473 ]
    },
    "properties": {
    "Scouting":"karmijngroep",
    "URL":"https://www.scouting.nl/scoutinggroep/karmijngroep",
    "rang":"lokale groep",
    "type":"landscouts",
    "Straat":"kennedysingel",
    "Huisnummer":"8A",
    "Postcode":"6645AW",
    "Stad":"Winssen",
    "Land":"Nederland",
    "Adres":"kennedysingel 8A"
    }
  },
  {
    "type": "Feature",
    "geometry": {
       "type": "Point",
       "coordinates":  [ 5.89267073,51.75283805 ]
    },
    "properties": {
    "Scouting":"Scouting Don Bosco Mook",
    "URL":"https://www.scouting.nl/scoutinggroep/scouting-don-bosco-mook",
    "rang":"lokale groep",
    "type":"landscouts",
    "Straat":"Avilaweg",
    "Huisnummer":"15",
    "Postcode":"6585KK",
    "Stad":"Mook",
    "Land":"Nederland",
    "Adres":"Avilaweg 15"
    }
  },
  {
    "type": "Feature",
    "geometry": {
       "type": "Point",
       "coordinates":  [ 5.84192577,51.82277126 ]
    },
    "properties": {
    "Scouting":"Scouting Jan van Hoof",
    "URL":"https://www.scouting.nl/scoutinggroep/scouting-jan-van-hoof",
    "rang":"lokale groep",
    "type":"landscouts",
    "Straat":"Slotemaker de Bruineweg",
    "Huisnummer":"161",
    "Postcode":"6532AC",
    "Stad":"Nijmegen",
    "Land":"Nederland",
    "Adres":"Slotemaker de Bruineweg 161"
    }
  },
  {
    "type": "Feature",
    "geometry": {
       "type": "Point",
       "coordinates":  [ 5.78558572,51.83914865 ]
    },
    "properties": {
    "Scouting":"Scouting Amalgama",
    "URL":"https://www.scouting.nl/scoutinggroep/scouting-amalgama",
    "rang":"lokale groep",
    "type":"landscouts",
    "Straat":"Weteringweg",
    "Huisnummer":"50",
    "Postcode":"6546JZ",
    "Stad":"Nijmegen",
    "Land":"Nederland",
    "Adres":"Weteringweg 50"
    }
  },
  {
    "type": "Feature",
    "geometry": {
       "type": "Point",
       "coordinates":  [ 5.85047586,51.80803881 ]
    },
    "properties": {
    "Scouting":"Scouting Traianus",
    "URL":"https://www.scouting.nl/scoutinggroep/scouting-traianus",
    "rang":"lokale groep",
    "type":"landscouts",
    "Straat":"Grootstalselaan",
    "Huisnummer":"9",
    "Postcode":"6533KH",
    "Stad":"Nijmegen",
    "Land":"Nederland",
    "Adres":"Grootstalselaan 9"
    }
  },
  {
    "type": "Feature",
    "geometry": {
       "type": "Point",
       "coordinates":  [ 5.86720136,51.78476833 ]
    },
    "properties": {
    "Scouting":"Scouting Malden",
    "URL":"https://www.scouting.nl/scoutinggroep/scouting-malden",
    "rang":"lokale groep",
    "type":"landscouts",
    "Straat":"Bosweg",
    "Huisnummer":"12A",
    "Postcode":"6581KR",
    "Stad":"Malden",
    "Land":"Nederland",
    "Adres":"Bosweg 12A"
    }
  },
  {
    "type": "Feature",
    "geometry": {
       "type": "Point",
       "coordinates":  [ 5.84934634,51.80800031 ]
    },
    "properties": {
    "Scouting":"ZV de Batavieren",
    "URL":"https://www.scouting.nl/scoutinggroep/zv-de-batavieren",
    "rang":"lokale groep",
    "type":"waterscouts",
    "Straat":"Grootstalselaan",
    "Huisnummer":"13",
    "Postcode":"6533KH",
    "Stad":"Nijmegen",
    "Land":"Nederland",
    "Adres":"Grootstalselaan 13"
    }
  },
  {
    "type": "Feature",
    "geometry": {
       "type": "Point",
       "coordinates":  [ 5.91660122,51.72952667 ]
    },
    "properties": {
    "Scouting":"Waterscouting Phileretmai",
    "URL":"https://www.scouting.nl/scoutinggroep/phileretmai",
    "rang":"lokale groep",
    "type":"waterscouts",
    "Straat":"Witteweg",
    "Huisnummer":"23",
    "Postcode":"6587AJ",
    "Stad":"Middelaar",
    "Land":"Nederland",
    "Adres":"Witteweg 23"
    }
  },
  {
    "type": "Feature",
    "geometry": {
       "type": "Point",
       "coordinates":  [ 5.91790781,51.72892497 ]
    },
    "properties": {
    "Scouting":"Zeeverkenners Canisius",
    "URL":"https://www.scouting.nl/scoutinggroep/zeeverkenners-canisius",
    "rang":"lokale groep",
    "type":"waterscouts",
    "Straat":"Witteweg",
    "Huisnummer":"23M",
    "Postcode":"6587AJ",
    "Stad":"Middelaar",
    "Land":"Nederland",
    "Adres":"Witteweg 23M"
    }
  },
  {
    "type": "Feature",
    "geometry": {
       "type": "Point",
       "coordinates":  [ 5.91776543,51.72900326 ]
    },
    "properties": {
    "Scouting":"St.Zeeverkenners Gabrielgroep",
    "URL":"https://www.scouting.nl/scoutinggroep/st-zeeverkenners-gabrielgroep",
    "rang":"lokale groep",
    "type":"waterscouts",
    "Straat":"Witteweg",
    "Huisnummer":"23K",
    "Postcode":"6587AJ",
    "Stad":"Middelaar",
    "Land":"Nederland",
    "Adres":"Witteweg 23K"
    }
  },
  {
    "type": "Feature",
    "geometry": {
       "type": "Point",
       "coordinates":  [ 5.78971665,51.80902684 ]
    },
    "properties": {
    "Scouting":"De Bevers",
    "URL":"https://www.scouting.nl/scoutinggroep/de-bevers",
    "rang":"lokale groep",
    "type":"landscouts",
    "Straat":"Staddijk",
    "Huisnummer":"105",
    "Postcode":"6537TW",
    "Stad":"Nijmegen",
    "Land":"Nederland",
    "Adres":"Staddijk 105"
    }
  },
  {
    "type": "Feature",
    "geometry": {
       "type": "Point",
       "coordinates":  [ 5.75605927,51.80144881 ]
    },
    "properties": {
    "Scouting":"Scouting Alverna",
    "URL":"https://www.scouting.nl/scoutinggroep/scouting-alverna",
    "rang":"lokale groep",
    "type":"landscouts",
    "Straat":"Den Berg",
    "Huisnummer":"7",
    "Postcode":"6603CV",
    "Stad":"Wijchen",
    "Land":"Nederland",
    "Adres":"Den Berg 7"
    }
  },
  {
    "type": "Feature",
    "geometry": {
       "type": "Point",
       "coordinates":  [ 5.81809331,51.80163832 ]
    },
    "properties": {
    "Scouting":"Scouting Karel de Stoute",
    "URL":"https://www.scouting.nl/scoutinggroep/scouting-karel-de-stoute",
    "rang":"lokale groep",
    "type":"landscouts",
    "Straat":"Weezenhof",
    "Huisnummer":"9311",
    "Postcode":"6536AE",
    "Stad":"Nijmegen",
    "Land":"Nederland",
    "Adres":"Weezenhof 9311"
    }
  },
  {
    "type": "Feature",
    "geometry": {
       "type": "Point",
       "coordinates":  [ 5.74478575,51.80584313 ]
    },
    "properties": {
    "Scouting":"Scouting St Franciscus",
    "URL":"https://www.scouting.nl/scoutinggroep/scouting-st-franciscus",
    "rang":"lokale groep",
    "type":"waterscouts",
    "Straat":"Sint Jorispad",
    "Huisnummer":"37",
    "Postcode":"6603AM",
    "Stad":"Wijchen",
    "Land":"Nederland",
    "Adres":"Sint Jorispad 37"
    }
  },
  {
    "type": "Feature",
    "geometry": {
       "type": "Point",
       "coordinates":  [ 5.81724040,51.85915306 ]
    },
    "properties": {
    "Scouting":"Scouting st. Andries Weurt",
    "URL":"https://www.scouting.nl/scoutinggroep/scouting-st-andries-weurt",
    "rang":"lokale groep",
    "type":"landscouts",
    "Straat":"Kerkstraat",
    "Huisnummer":"50",
    "Postcode":"6551ZZ",
    "Stad":"Weurt",
    "Land":"Nederland",
    "Adres":"Kerkstraat 50"
    }
  },
  {
    "type": "Feature",
    "geometry": {
       "type": "Point",
       "coordinates":  [ 5.71739371,51.82524860 ]
    },
    "properties": {
    "Scouting":"Scouting Woezik",
    "URL":"https://www.scouting.nl/scoutinggroep/scouting-woezik",
    "rang":"lokale groep",
    "type":"landscouts",
    "Straat":"Oud Woeziksestraat",
    "Huisnummer":"3",
    "Postcode":"6604KD",
    "Stad":"Wijchen",
    "Land":"Nederland",
    "Adres":"Oud Woeziksestraat 3"
    }
  },
  {
    "type": "Feature",
    "geometry": {
       "type": "Point",
       "coordinates":  [ 5.78216565,51.85365738 ]
    },
    "properties": {
    "Scouting":"Scouting Beuningen '76",
    "URL":"https://www.scouting.nl/scoutinggroep/scouting-beuningen-76",
    "rang":"lokale groep",
    "type":"luchtscouts",
    "Straat":"Reekstraat",
    "Huisnummer":"13a",
    "Postcode":"6551DR",
    "Stad":"Weurt",
    "Land":"Nederland",
    "Adres":"Reekstraat 13a"
    }
  },
  {
    "type": "Feature",
    "geometry": {
       "type": "Point",
       "coordinates":  [ 5.96094623,51.91574790 ]
    },
    "properties": {
    "Scouting":"St. Augustinusgroep",
    "URL":"https://www.scouting.nl/scoutinggroep/st-augustinusgroep",
    "rang":"lokale groep",
    "type":"landscouts",
    "Straat":"Rosmolenstraat",
    "Huisnummer":"30a",
    "Postcode":"6687AL",
    "Stad":"Angeren",
    "Land":"Nederland",
    "Adres":"Rosmolenstraat 30a"
    }
  },
  {
    "type": "Feature",
    "geometry": {
       "type": "Point",
       "coordinates":  [ 5.90543468,51.88718189 ]
    },
    "properties": {
    "Scouting":"Scouting Bemmel",
    "URL":"https://www.scouting.nl/scoutinggroep/scouting-bemmel",
    "rang":"lokale groep",
    "type":"landscouts",
    "Straat":"Sportlaan",
    "Huisnummer":"1F",
    "Postcode":"6681CD",
    "Stad":"Bemmel",
    "Land":"Nederland",
    "Adres":"Sportlaan 1F"
    }
  },
  {
    "type": "Feature",
    "geometry": {
       "type": "Point",
       "coordinates":  [ 6.02142403,51.89011480 ]
    },
    "properties": {
    "Scouting":"Ver. scouting sint maarten",
    "URL":"https://www.scouting.nl/scoutinggroep/ver-scouting-sint-maarten",
    "rang":"lokale groep",
    "type":"landscouts",
    "Straat":"Sterreschans",
    "Huisnummer":"2",
    "Postcode":"6686MV",
    "Stad":"Doornenburg",
    "Land":"Nederland",
    "Adres":"Sterreschans 2"
    }
  },
  {
    "type": "Feature",
    "geometry": {
       "type": "Point",
       "coordinates":  [ 5.84344148,51.90680692 ]
    },
    "properties": {
    "Scouting":"St Werenfridusgroep",
    "URL":"https://www.scouting.nl/scoutinggroep/st-werenfridusgroep",
    "rang":"lokale groep",
    "type":"landscouts",
    "Straat":"De Pas",
    "Huisnummer":"4",
    "Postcode":"6662BK",
    "Stad":"Elst (Gld)",
    "Land":"Nederland",
    "Adres":"De Pas 4"
    }
  },
  {
    "type": "Feature",
    "geometry": {
       "type": "Point",
       "coordinates":  [ 5.92853909,51.92669916 ]
    },
    "properties": {
    "Scouting":"st scouting huissen-zand",
    "URL":"https://www.scouting.nl/scoutinggroep/st-scouting-huissen-zand",
    "rang":"lokale groep",
    "type":"landscouts",
    "Straat":"van Wijkstraat",
    "Huisnummer":"31A",
    "Postcode":"6851GL",
    "Stad":"Huissen",
    "Land":"Nederland",
    "Adres":"van Wijkstraat 31A"
    }
  },
  {
    "type": "Feature",
    "geometry": {
       "type": "Point",
       "coordinates":  [ 5.94225386,51.93571152 ]
    },
    "properties": {
    "Scouting":"Scouting Dannenburcht",
    "URL":"https://www.scouting.nl/scoutinggroep/scouting-dannenburcht",
    "rang":"lokale groep",
    "type":"landscouts",
    "Straat":"Kloosterlaan",
    "Huisnummer":"1a",
    "Postcode":"6851CA",
    "Stad":"Huissen",
    "Land":"Nederland",
    "Adres":"Kloosterlaan 1a"
    }
  },
  {
    "type": "Feature",
    "geometry": {
       "type": "Point",
       "coordinates":  [ 5.86034356,51.86025830 ]
    },
    "properties": {
    "Scouting":"Scouting Lent",
    "URL":"https://www.scouting.nl/scoutinggroep/scouting-lent-st-bernardus",
    "rang":"lokale groep",
    "type":"landscouts",
    "Straat":"Parallelweg",
    "Huisnummer":"28",
    "Postcode":"6663AR",
    "Stad":"Lent",
    "Land":"Nederland",
    "Adres":"Parallelweg 28"
    }
  },
  {
    "type": "Feature",
    "geometry": {
       "type": "Point",
       "coordinates":  [ 5.79446202,51.90752501 ]
    },
    "properties": {
    "Scouting":"Scouting Valburg",
    "URL":"https://www.scouting.nl/scoutinggroep/scouting-valburg",
    "rang":"lokale groep",
    "type":"landscouts",
    "Straat":"Reethsestraat",
    "Huisnummer":"25",
    "Postcode":"6675CE",
    "Stad":"Valburg",
    "Land":"Nederland",
    "Adres":"Reethsestraat 25"
    }
  },
  {
    "type": "Feature",
    "geometry": {
       "type": "Point",
       "coordinates":  [ 5.70936476,51.93253269 ]
    },
    "properties": {
    "Scouting":"Scouting Zetten",
    "URL":"https://www.scouting.nl/scoutinggroep/scouting-zetten",
    "rang":"lokale groep",
    "type":"landscouts",
    "Straat":"Piersonstraat",
    "Huisnummer":"21",
    "Postcode":"6671CK",
    "Stad":"Zetten",
    "Land":"Nederland",
    "Adres":"Piersonstraat 21"
    }
  },
  {
    "type": "Feature",
    "geometry": {
       "type": "Point",
       "coordinates":  [ 6.13216565,51.93853678 ]
    },
    "properties": {
    "Scouting":"St Willibrordgroep",
    "URL":"https://www.scouting.nl/scoutinggroep/st-willibrordgroep",
    "rang":"lokale groep",
    "type":"scouts met een beperking",
    "Straat":"Julianastraat",
    "Huisnummer":"41",
    "Postcode":"6942BB",
    "Stad":"Didam",
    "Land":"Nederland",
    "Adres":"Julianastraat 41"
    }
  },
  {
    "type": "Feature",
    "geometry": {
       "type": "Point",
       "coordinates":  [ 6.03234246,51.94399809 ]
    },
    "properties": {
    "Scouting":"Scouting Duiven",
    "URL":"https://www.scouting.nl/scoutinggroep/scouting-duiven",
    "rang":"lokale groep",
    "type":"scouts met een beperking",
    "Straat":"De Nieuweling",
    "Huisnummer":"3",
    "Postcode":"6921JL",
    "Stad":"Duiven",
    "Land":"Nederland",
    "Adres":"De Nieuweling 3"
    }
  },
  {
    "type": "Feature",
    "geometry": {
       "type": "Point",
       "coordinates":  [ 6.03232034,51.93193623 ]
    },
    "properties": {
    "Scouting":"Scouting Groessen",
    "URL":"https://www.scouting.nl/scoutinggroep/scouting-groessen",
    "rang":"lokale groep",
    "type":"landscouts",
    "Straat":"Sint Isidorusplein",
    "Huisnummer":"8",
    "Postcode":"6923BD",
    "Stad":"Groessen",
    "Land":"Nederland",
    "Adres":"Sint Isidorusplein 8"
    }
  },
  {
    "type": "Feature",
    "geometry": {
       "type": "Point",
       "coordinates":  [ 6.11025170,51.85825185 ]
    },
    "properties": {
    "Scouting":"Scouting Rijnwaarden",
    "URL":"https://www.scouting.nl/scoutinggroep/scouting-rijnwaarden",
    "rang":"lokale groep",
    "type":"waterscouts",
    "Straat":"Tragelweg",
    "Huisnummer":"1",
    "Postcode":"6915SE",
    "Stad":"Lobith",
    "Land":"Nederland",
    "Adres":"Tragelweg 1"
    }
  },
  {
    "type": "Feature",
    "geometry": {
       "type": "Point",
       "coordinates":  [ 6.06613551,51.91577400 ]
    },
    "properties": {
    "Scouting":"Subanhara Liemersgroep",
    "URL":"https://www.scouting.nl/scoutinggroep/subanhara-liemersgroep",
    "rang":"lokale groep",
    "type":"landscouts",
    "Straat":"Slenterweg",
    "Huisnummer":"29",
    "Postcode":"6905DP",
    "Stad":"Zevenaar",
    "Land":"Nederland",
    "Adres":"Slenterweg 29"
    }
  },
  {
    "type": "Feature",
    "geometry": {
       "type": "Point",
       "coordinates":  [ 6.06760696,52.00210215 ]
    },
    "properties": {
    "Scouting":"Abel Tasman groep",
    "URL":"https://www.scouting.nl/scoutinggroep/abel-tasman-groep",
    "rang":"lokale groep",
    "type":"waterscouts",
    "Straat":"Rhedense Veerweg",
    "Huisnummer":"70",
    "Postcode":"6987EE",
    "Stad":"Giesbeek",
    "Land":"Nederland",
    "Adres":"Rhedense Veerweg 70"
    }
  },
  {
    "type": "Feature",
    "geometry": {
       "type": "Point",
       "coordinates":  [ 6.14663431,52.01704015 ]
    },
    "properties": {
    "Scouting":"Isala Groep Doesburg",
    "URL":"https://www.scouting.nl/scoutinggroep/isala-groep-doesburg",
    "rang":"lokale groep",
    "type":"landscouts",
    "Straat":"Panovenweg",
    "Huisnummer":"1",
    "Postcode":"6984AK",
    "Stad":"Doesburg",
    "Land":"Nederland",
    "Adres":"Panovenweg 1"
    }
  },
  {
    "type": "Feature",
    "geometry": {
       "type": "Point",
       "coordinates":  [ 6.26755531,51.97641871 ]
    },
    "properties": {
    "Scouting":"Scouting Hamaland",
    "URL":"https://www.scouting.nl/scoutinggroep/scouting-hamaland",
    "rang":"lokale groep",
    "type":"landscouts",
    "Straat":"Keppelseweg",
    "Huisnummer":"249",
    "Postcode":"7008BB",
    "Stad":"Doetinchem",
    "Land":"Nederland",
    "Adres":"Keppelseweg 249"
    }
  },
  {
    "type": "Feature",
    "geometry": {
       "type": "Point",
       "coordinates":  [ 6.320695900,51.949441800 ]
    },
    "properties": {
    "Scouting":"Graaf Ottogroep",
    "URL":"https://www.scouting.nl/scoutinggroep/graaf-ottogroep",
    "rang":"lokale groep",
    "type":"landscouts",
    "Straat":"Koekendaalseweg",
    "Huisnummer":"11",
    "Postcode":"7004GH",
    "Stad":"Doetinchem",
    "Land":"Nederland",
    "Adres":"Koekendaalseweg 11"
    }
  },
  {
    "type": "Feature",
    "geometry": {
       "type": "Point",
       "coordinates":  [ 6.320695900,51.949441800 ]
    },
    "properties": {
    "Scouting":"Scouting Roothaangroep",
    "URL":"https://www.scouting.nl/scoutinggroep/scouting-roothaangroep",
    "rang":"lokale groep",
    "type":"landscouts",
    "Straat":"Koekendaalseweg",
    "Huisnummer":"11",
    "Postcode":"7004GH",
    "Stad":"Doetinchem",
    "Land":"Nederland",
    "Adres":"Koekendaalseweg 11"
    }
  },
  {
    "type": "Feature",
    "geometry": {
       "type": "Point",
       "coordinates":  [ 6.34726347,51.93794239 ]
    },
    "properties": {
    "Scouting":"SCOUTING GAANDEREN",
    "URL":"https://www.scouting.nl/scoutinggroep/scouting-gaanderen",
    "rang":"lokale groep",
    "type":"landscouts",
    "Straat":"Hamminkstraat",
    "Huisnummer":"21",
    "Postcode":"7011HC",
    "Stad":"Gaanderen",
    "Land":"Nederland",
    "Adres":"Hamminkstraat 21"
    }
  },
  {
    "type": "Feature",
    "geometry": {
       "type": "Point",
       "coordinates":  [ 6.37116784,51.87028281 ]
    },
    "properties": {
    "Scouting":"Scouting Gendringen",
    "URL":"https://www.scouting.nl/scoutinggroep/scouting-gendringen",
    "rang":"lokale groep",
    "type":"landscouts",
    "Straat":"Tulpstraat",
    "Huisnummer":"6",
    "Postcode":"7081EB",
    "Stad":"Gendringen",
    "Land":"Nederland",
    "Adres":"Tulpstraat 6"
    }
  },
  {
    "type": "Feature",
    "geometry": {
       "type": "Point",
       "coordinates":  [ 6.38135705,51.91028508 ]
    },
    "properties": {
    "Scouting":"jonko groep",
    "URL":"https://www.scouting.nl/scoutinggroep/jonko-groep",
    "rang":"lokale groep",
    "type":"landscouts",
    "Straat":"Kerkenstraat",
    "Huisnummer":"5",
    "Postcode":"7064BH",
    "Stad":"Silvolde",
    "Land":"Nederland",
    "Adres":"Kerkenstraat 5"
    }
  },
  {
    "type": "Feature",
    "geometry": {
       "type": "Point",
       "coordinates":  [ 6.38707836,51.88204069 ]
    },
    "properties": {
    "Scouting":"Scouting Ulft",
    "URL":"https://www.scouting.nl/scoutinggroep/scouting-ulft",
    "rang":"lokale groep",
    "type":"landscouts",
    "Straat":"Bongersstraat",
    "Huisnummer":"263",
    "Postcode":"7071DZ",
    "Stad":"Ulft",
    "Land":"Nederland",
    "Adres":"Bongersstraat 263"
    }
  },
  {
    "type": "Feature",
    "geometry": {
       "type": "Point",
       "coordinates":  [ 6.26537316,51.90431419 ]
    },
    "properties": {
    "Scouting":"St. Oswaldusgroep",
    "URL":"https://www.scouting.nl/scoutinggroep/st-oswaldusgroep",
    "rang":"lokale groep",
    "type":"landscouts",
    "Straat":"Vinkwijk",
    "Huisnummer":"2A",
    "Postcode":"7038EM",
    "Stad":"Zeddam",
    "Land":"Nederland",
    "Adres":"Vinkwijk 2A"
    }
  },
  {
    "type": "Feature",
    "geometry": {
       "type": "Point",
       "coordinates":  [ 6.46375535,51.87434028 ]
    },
    "properties": {
    "Scouting":"scouting Saksenheerd",
    "URL":"https://www.scouting.nl/scoutinggroep/scouting-saksenheerd",
    "rang":"lokale groep",
    "type":"landscouts",
    "Straat":"Terborgseweg",
    "Huisnummer":"16B",
    "Postcode":"7084AJ",
    "Stad":"Breedenbroek",
    "Land":"Nederland",
    "Adres":"Terborgseweg 16B"
    }
  },
  {
    "type": "Feature",
    "geometry": {
       "type": "Point",
       "coordinates":  [ 6.40909675,51.97862502 ]
    },
    "properties": {
    "Scouting":"Regio Scouting Achterhoek",
    "URL":"https://www.scouting.nl/scoutinggroep/regio-scouting-achterhoek",
    "rang":"regio",
    "type":"landscouts",
    "Straat":"Halle-Nijmanweg",
    "Huisnummer":"34",
    "Postcode":"7025EG",
    "Stad":"Halle",
    "Land":"Nederland",
    "Adres":"Halle-Nijmanweg 34"
    }
  },
  {
    "type": "Feature",
    "geometry": {
       "type": "Point",
       "coordinates":  [ 6.58849214,51.93808112 ]
    },
    "properties": {
    "Scouting":"Scouting Aalten",
    "URL":"https://www.scouting.nl/scoutinggroep/scouting-aalten",
    "rang":"lokale groep",
    "type":"landscouts",
    "Straat":"Bokkelderweg",
    "Huisnummer":"3",
    "Postcode":"7121MP",
    "Stad":"Aalten",
    "Land":"Nederland",
    "Adres":"Bokkelderweg 3"
    }
  },
  {
    "type": "Feature",
    "geometry": {
       "type": "Point",
       "coordinates":  [ 6.53458053,52.13433827 ]
    },
    "properties": {
    "Scouting":"Scouting Borculo Cycloongroep",
    "URL":"https://www.scouting.nl/scoutinggroep/scouting-borculo-cycloongroep",
    "rang":"lokale groep",
    "type":"landscouts",
    "Straat":"Oude Diepenheimseweg",
    "Huisnummer":"18A",
    "Postcode":"7274AB",
    "Stad":"Geesteren (Gld)",
    "Land":"Nederland",
    "Adres":"Oude Diepenheimseweg 18A"
    }
  },
  {
    "type": "Feature",
    "geometry": {
       "type": "Point",
       "coordinates":  [ 6.65113213,52.11579770 ]
    },
    "properties": {
    "Scouting":"St. Scouting Skoltaro",
    "URL":"https://www.scouting.nl/scoutinggroep/st-scouting-skoltaro",
    "rang":"lokale groep",
    "type":"landscouts",
    "Straat":"Oude Needseweg",
    "Huisnummer":"3",
    "Postcode":"7151ME",
    "Stad":"Eibergen",
    "Land":"Nederland",
    "Adres":"Oude Needseweg 3"
    }
  },
  {
    "type": "Feature",
    "geometry": {
       "type": "Point",
       "coordinates":  [ 6.62055402,52.04163027 ]
    },
    "properties": {
    "Scouting":"Jeanne d'Arc & St Ludger",
    "URL":"https://www.scouting.nl/scoutinggroep/jeanne-darc-st-ludger",
    "rang":"lokale groep",
    "type":"landscouts",
    "Straat":"Gasthuisstraat",
    "Huisnummer":"14",
    "Postcode":"7141BT",
    "Stad":"Groenlo",
    "Land":"Nederland",
    "Adres":"Gasthuisstraat 14"
    }
  },
  {
    "type": "Feature",
    "geometry": {
       "type": "Point",
       "coordinates":  [ 6.55677747,51.98534774 ]
    },
    "properties": {
    "Scouting":"st bernardusgroep",
    "URL":"https://www.scouting.nl/scoutinggroep/st-bernardusgroep",
    "rang":"lokale groep",
    "type":"landscouts",
    "Straat":"van Reedestraat",
    "Huisnummer":"24",
    "Postcode":"7131BE",
    "Stad":"Lichtenvoorde",
    "Land":"Nederland",
    "Adres":"van Reedestraat 24"
    }
  },
  {
    "type": "Feature",
    "geometry": {
       "type": "Point",
       "coordinates":  [ 6.63045214,52.13967867 ]
    },
    "properties": {
    "Scouting":"Pakawevers-groep",
    "URL":"https://www.scouting.nl/scoutinggroep/pakawevers-groep",
    "rang":"lokale groep",
    "type":"landscouts",
    "Straat":"Koeweidendijk",
    "Huisnummer":"27A",
    "Postcode":"7161RJ",
    "Stad":"Neede",
    "Land":"Nederland",
    "Adres":"Koeweidendijk 27A"
    }
  },
  {
    "type": "Feature",
    "geometry": {
       "type": "Point",
       "coordinates":  [ 6.73095477,51.96592512 ]
    },
    "properties": {
    "Scouting":"St. Scouting Winterswijk van Starckenrodegroep",
    "URL":"https://www.scouting.nl/scoutinggroep/st-scouting-winterswijk-van-starckenrodegroep",
    "rang":"lokale groep",
    "type":"landscouts",
    "Straat":"de Huininkmaat",
    "Huisnummer":"4",
    "Postcode":"7101JJ",
    "Stad":"Winterswijk",
    "Land":"Nederland",
    "Adres":"de Huininkmaat 4"
    }
  },
  {
    "type": "Feature",
    "geometry": {
       "type": "Point",
       "coordinates":  [ 6.55195084,53.20800014 ]
    },
    "properties": {
    "Scouting":"Regio Groningen",
    "URL":"https://www.scouting.nl/scoutinggroep/regio-groningen",
    "rang":"regio",
    "type":"waterscouts",
    "Straat":"Illegaliteitslaan",
    "Huisnummer":"45",
    "Postcode":"9727EB",
    "Stad":"Groningen",
    "Land":"Nederland",
    "Adres":"Illegaliteitslaan 45"
    }
  },
  {
    "type": "Feature",
    "geometry": {
       "type": "Point",
       "coordinates":  [ 6.55547104,52.85269772 ]
    },
    "properties": {
    "Scouting":"Noordelijk PinksterKamp",
    "URL":"https://www.scouting.nl/scoutinggroep/noordelijk-pinksterkamp",
    "rang":"bovenregionale activiteit",
    "type":"scouts",
    "Straat":"Lieving",
    "Huisnummer":"74",
    "Postcode":"9411TG",
    "Stad":"Beilen",
    "Land":"Nederland",
    "Adres":"Lieving 74"
    }
  },
  {
    "type": "Feature",
    "geometry": {
       "type": "Point",
       "coordinates":  [ 6.41602783,53.19032063 ]
    },
    "properties": {
    "Scouting":"Chauken",
    "URL":"https://www.scouting.nl/scoutinggroep/chauken",
    "rang":"lokale groep",
    "type":"waterscouts",
    "Straat":"Hoofdstraat",
    "Huisnummer":"190",
    "Postcode":"9827PD",
    "Stad":"Lettelbert",
    "Land":"Nederland",
    "Adres":"Hoofdstraat 190"
    }
  },
  {
    "type": "Feature",
    "geometry": {
       "type": "Point",
       "coordinates":  [ 6.53031440,53.23566279 ]
    },
    "properties": {
    "Scouting":"Scoutinggroep de Havik",
    "URL":"https://www.scouting.nl/scoutinggroep/scoutinggroep-de-havik",
    "rang":"lokale groep",
    "type":"landscouts",
    "Straat":"Jaagpad",
    "Huisnummer":"1",
    "Postcode":"9747AE",
    "Stad":"Groningen",
    "Land":"Nederland",
    "Adres":"Jaagpad 1"
    }
  },
  {
    "type": "Feature",
    "geometry": {
       "type": "Point",
       "coordinates":  [ 6.55600728,53.20654720 ]
    },
    "properties": {
    "Scouting":"Scouting Impeesa",
    "URL":"https://www.scouting.nl/scoutinggroep/scouting-impeesa",
    "rang":"lokale groep",
    "type":"waterscouts",
    "Straat":"Concourslaan",
    "Huisnummer":"5",
    "Postcode":"9727KC",
    "Stad":"Groningen",
    "Land":"Nederland",
    "Adres":"Concourslaan 5"
    }
  },
  {
    "type": "Feature",
    "geometry": {
       "type": "Point",
       "coordinates":  [ 6.69673175,53.10943391 ]
    },
    "properties": {
    "Scouting":"Nicolaas",
    "URL":"https://www.scouting.nl/scoutinggroep/nicolaas",
    "rang":"lokale groep",
    "type":"waterscouts",
    "Straat":"Noordma",
    "Huisnummer":"2",
    "Postcode":"9475TH",
    "Stad":"Midlaren",
    "Land":"Nederland",
    "Adres":"Noordma 2"
    }
  },
  {
    "type": "Feature",
    "geometry": {
       "type": "Point",
       "coordinates":  [ 6.59215194,53.25109756 ]
    },
    "properties": {
    "Scouting":"De Voerman",
    "URL":"https://www.scouting.nl/scoutinggroep/de-voerman",
    "rang":"lokale groep",
    "type":"landscouts",
    "Straat":"Beijumerweg",
    "Huisnummer":"17",
    "Postcode":"9737AB",
    "Stad":"Groningen",
    "Land":"Nederland",
    "Adres":"Beijumerweg 17"
    }
  },
  {
    "type": "Feature",
    "geometry": {
       "type": "Point",
       "coordinates":  [ 6.51415582,53.21830578 ]
    },
    "properties": {
    "Scouting":"De Woudlopers / R.Kipling",
    "URL":"https://www.scouting.nl/scoutinggroep/de-woudlopers-r-kipling",
    "rang":"lokale groep",
    "type":"landscouts",
    "Straat":"Tarralaan",
    "Huisnummer":"1",
    "Postcode":"9745ER",
    "Stad":"Groningen",
    "Land":"Nederland",
    "Adres":"Tarralaan 1"
    }
  },
  {
    "type": "Feature",
    "geometry": {
       "type": "Point",
       "coordinates":  [ 6.55654641,53.20597102 ]
    },